name,latitude,longitude
Bangalore,12.9791198,77.5912997
Pedro Escobedo,20.46887135,-100.17162633028184
Utah,39.4225192,-111.7143584
"Beograd, Serbia",44.8178131,20.4568974
"Brisbane, Australia",-27.4689682,153.0234991
"Verona, VR, Italia",45.4384958,10.9924122
"San Francisco Bay Area, CA, United States",37.7884969,-122.3558473
"Nowshera, Pakistan",34.0155606,71.981283
"Bob Street, Theodore, AL, USA",30.541556,-88.174672
"Tazoult, Batna, Algérie",35.4860091,6.2536097
"Burlington, WA",40.8075391,-91.1129234
"Caracas, Venezuela",10.506098,-66.9146017
"Gujranwala, Punjab, Pakistan",32.1525312,74.1933745
"Richland, WA, United States",46.2804298,-119.2752055
"Cluj-Napoca, Cluj County, Romania",46.769379,23.5899542
"Natal, RN, Brasil",-5.805398,-35.2080905
"Beroun, Czech Republic",49.9640292,14.0733907
Virginia USA,37.1232245,-78.4927721
morinda,30.7908462,76.4984505
"Gainesville, FL",29.6519684,-82.3249846
"Union Station, Denver, CO, USA",39.75363,-105.0007481
Multan Pakistan,30.1979793,71.4724978
"Versailles, Fransa",48.8035403,2.1266886
"Toruń, Polska",53.0102721,18.6048094
"Izmir, İzmir, Turkey",38.4147331,27.1434119
"London, Vereinigtes Königreich",51.5073219,-0.1276474
"Ciudad Autónoma de Buenos Aires, Buenos Aires, Argentina",-34.5750394,-58.4636174
K,46.641560350000006,14.302772006735934
Côte d'Ivoire,7.9897371,-5.5679458
"Казань, Республика Татарстан, Россия",55.7823547,49.1242266
"Coyhaique, Chile",-45.5711804,-72.0684863
"Camas, WA",45.5911103,-122.4122248
Cape town,-33.928992,18.417396
"10447 Yonge Street, Richmond Hill, ON, Canada",43.8819967,-79.439529
"Columbus, GA, United States",32.4609764,-84.9877094
Thessaloniki,40.6403167,22.9352716
"Lyngby, Denmark",55.7718649,12.5051413
"Harbin, 黑龙江省中国",45.7656666,126.6160584
"Pancevo, Serbia",44.8705686,20.6399643
türkiye,38.9597594,34.9249653
"St Petersburg, FL",27.7703796,-82.6695085
"Santa Monica, CA, USA",34.0250724,-118.4965129
"Nagyatád, Magyarország",46.229143,17.3570964
kathmandu,27.708317,85.3205817
"Earth Sciences Centre, Toronto, Ontario, Kanada",43.6607669,-79.3992021198853
"Hong Kong Island, 香港",22.2793278,114.1628131
"West Des Moines, IA, United States",41.5645337,-93.7595281
Bursa / Türkiye,40.1827657,29.0677305
"Suzhou, China",31.3016935,120.5810725
Gijon,43.5450394,-5.6626443
By,53.4250605,27.6971358
"Fleet, United Kingdom",51.2828601,-0.8316334471979006
대한민국 Seoul,37.5666791,126.9782914
"Skopje, Macedonia",41.9960924,21.4316495
"Florida, USA",27.7567667,-81.4639835
"Ghaziabad, Uttar Pradesh, India",28.711241,77.4445372
"Granada, España",37.183054,-3.6021928
"Richmond, VA",37.5385087,-77.43428
"Tucson, AZ",32.2228765,-110.9748477
The Neherlands,51.9863245,4.6302107
"Northern Ireland, United Kingdom",54.6294982,-6.7654416
"Erfurt, Allemagne",50.9777974,11.0287364
"Kota Yogyakarta, Daerah Istimewa Yogyakarta, Indonesia",-7.8011945,110.364917
"Carpi, Italy",44.7835699,10.8854523
"Ulaanbaatar, Mongolia",47.9184676,106.9177016
Udaipur,24.578721,73.6862571
"Kajang, Selangor, Malaysia",2.98320905,101.79035124931443
"Ibadan, Oyo State, Nigeria",7.3777462,3.8972497
"San Salvador, El Salvador",13.6989939,-89.1914249
"San Luis Obispo, CA, United States",35.3540209,-120.3757163
"Bedford, Nova Scotia, Canada",44.7303901,-63.6582365
"Newnan, GA, United States",33.3806716,-84.7996573
"Groningen, The Netherlands",53.2190652,6.5680077
"Vikarabad, Telangana, India",17.2702855,77.74529700637382
"Wetzlar, Germany",50.5525346,8.5074406
hyderbad,12.9665538,77.6141032
Hawaii,19.58726775,-155.42688965312746
"Żory, Polska",50.0388902,18.680612383121996
"Chicago, Illinois, USA",41.8755616,-87.6244212
"9930 W. Indian School Rd. Phoenix, AZ 85037",33.4938592,-112.2697142
"Annecy, France",45.8992348,6.1288847
"Jakarta Pusat, Kota Jakarta Pusat, Daerah Khusus Ibukota Jakarta, Indonesia",-6.2007468,106.8158855
"Amherst, MA, USA",42.3685658,-72.505714
"Châtillon, France",46.6591772,5.7302769
"Vienna, Autriche",48.2083537,16.3725042
"SLC, UT",40.790066100000004,-111.97989846185591
Chinease,34.3458215,134.0528686
"MD, USA",39.5162234,-76.9382069
"Burlington, Canada",43.3248924,-79.7966835
Mar Vista,34.0037605,-118.4391641
"Montclair, NJ, USA",40.8164458,-74.2210643
finland,63.2467777,25.9209164
"Bountiful, UT, United States",40.8894611,-111.8804817
"Laredo, TX, USA",27.5199841,-99.4953764
Russia,64.6863136,97.7453061
chennai,13.0801721,80.2838331
Casablanca,33.5950627,-7.6187768
"Jacksonville, FL, USA",30.3321838,-81.655651
Paraguay,-23.3165935,-58.1693445
"Ernakulam, Kerala, India",9.9825665,76.2990313
Multan,30.1979793,71.4724978
"Kingston upon Thames, UK",51.4096275,-0.3062621
"Durango, CO, USA",37.2713951,-107.8815978
"Islamabad, Federal Capital Territory, Pakistan",33.6938118,73.0651511
"Medford, OR",42.3264181,-122.8718605
"Semarang, Semarang City, Central Java, Indonesia",-6.96564955,110.42713685283832
"Rivnens'ka oblast, Ukraine",51.2074112,26.5208033
"AZ, USA",34.395342,-111.7632755
"Bangkok, ประเทศไทย",13.7542529,100.493087
"Volgograd, Russia",48.64820995,44.38576379902911
"Shenzhen Airport (Fu Yong), 宝安区深圳市中国",22.637637599999998,113.80609063540386
"Howrah, West Bengal, India",22.5736296,88.3251045
"Göttingen, Germany",51.5327604,9.9352051
"Libis, Quezon City, Metro Manila, Philippines",14.6155762,121.0755646
"Santiago de Compostela, España",42.8804219,-8.5458608
"Tsukuba, つくば市 茨城県 日本",36.0825786,140.1112316
Cairo,30.048819,31.243666
"Ujjain, Madhya Pradesh, India",23.174597,75.7851423
"Starkville, MS, United States",33.4503998,-88.8183872
"Matola, Moçambique",-25.966917,32.466956
Abuja,9.0643305,7.4892974
"Silicon Valley, CA, USA",37.4429964,-122.1545229
"Bellevue, WA, USA",47.6144219,-122.1923372
"India Gate, New Delhi, Delhi, India",28.6128806,77.2295975
Pandora,40.9481079,-83.9610538
"Sarawak, Malaysia",2.3926225,113.646867
"Tweedbank, Galashiels, United Kingdom",55.6036132,-2.7659301
"Melbourne, FL, USA",28.0836269,-80.6081089
"Staffordshire, United Kingdom",52.824694199999996,-2.0074546723348115
Danmark,55.670249,10.3333283
"Carmel, IN",39.9788017,-86.1189257
"Tamworth, Australia",-31.0900743,150.9290159
"Lorient, France",47.7477336,-3.3660907
"Méx., México",19.4839446,-99.6899716
Addis ababa,9.0107934,38.7612525
"Hospet, Karnataka, India",15.266493,76.3872297
Ras Al-Khaimah - United Arab Emirates,25.74436875,55.91575410354658
"St. Pölten, Österreich",48.193315,15.619871498286466
"Horana, Western Province, Sri Lanka",6.716628,80.0619488
"Tasikmalaya, Indonesia",-7.3262484,108.2201154
"Panadura, Western Province, Sri Lanka",6.7123961,79.9074569
"Chesterfield, VA, United States",36.8437589,-76.2599395
"121 Pasteur, phường 6, Quận 3, Hồ Chí Minh, Việt Nam",10.7834385,106.6926717
"Aalborg, Danmark",57.0462626,9.9215263
"Hwaseong-si, 경기도 대한민국",37.1994653,126.8312632
"Atlanta, GA, USA",33.7490987,-84.3901849
"Bavaria, Deutschland",48.9467562,11.4038717
"Bruxelles, Belgique",50.8465573,4.351697
"Ribeirao Preto - State of São Paulo, Brazil",-21.178333,-47.8066671
Kochi,9.931308,76.2674136
"Kediri City, Kediri, Jawa Timur, Indonesia",-7.8111057,112.0046051
"Surabaya, Surabaya City, East Java, Indonesia",-7.2127859,112.7784834
"Sudbury, ON, Canada",46.49272,-80.991211
"Batang, Jawa Tengah, Indonesia",-7.031803350000001,109.86813118839709
"Århus, Denmark",56.1496278,10.2134046
"Yxhultsvägen, Kumla, Sverige",59.1151825,15.206255
"Montpellier, France",43.6112422,3.8767337
"Downingtown, PA 19335, United States",40.0020755,-75.7105446
"Bangshal, Dhaka, Dhaka Division, Bangladesh",23.7165366,90.4049136
"Kiel, Deutschland",54.3227085,10.135555
"West Midlands, England",52.5050033,-1.964396123331272
"Zielona Góra, Polska",51.92766315,15.549005417916433
"Lafayette, LA, United States",30.2240897,-92.0198427
"Tamarack, ID",44.9551656,-116.3856896
"Annaba, Algeria",36.8982165,7.7549272
"Newport, RI, USA",41.4899827,-71.3137707
"Batyrevo, Chuvashia Republic 429350  Russia",55.0681559,47.6042007
"Polska, Warszawa, Polska",52.2046714,21.0745577
"Wimereux, France",50.7696858,1.6118608
"Edison, NJ, USA",40.5382375,-74.39451734508772
"Everett, MA, United States",42.40843,-71.0536625
Phoenix,33.4484367,-112.0741417
"1802 Jackson Avenue West, Oxford, MS, USA",34.366291,-89.551083
"Faisalabad, Pakistan",31.4220558,73.0923253
"Spring, TX, United States",30.0798826,-95.4172549
"Inverness, FL",28.8358176,-82.3303715
"Fortaleza - CE, Brasil",-3.7304512,-38.5217989
"Gdańsk, Polska",54.347629,18.6452324
israel,31.5313113,34.8667654
"Tunis, Tunisie",33.8439408,9.400138
"Santo Domingo, República Dominicana",18.4801972,-69.942111
"Jersey City, NJ",40.7281575,-74.0776417
"Austin, Texas, United States",30.2711286,-97.7436995
"Iran, Tehran, Tehran Province",35.7713664,51.4640032
International,50.109345950000005,14.393264664529315
"Santiago, Chile",-33.4377968,-70.6504451
"Nova Odessa, State of São Paulo, Brazil",-22.783186,-47.294059
"Missouri, USA",38.7604815,-92.5617875
Local Developer,51.894091450000005,31.60175385
"Caicó, RN, Brasil",-6.4594544,-37.0971911
"University of Michigan, MI",42.2942142,-83.71003893509601
"Tallinn, Harju maakond, Eesti",59.4372155,24.7453688
"PA, USA",40.9699889,-77.7278831
Aurangabad,19.877263,75.3390241
"Valtournenche, Italy",45.911551,7.61925471185339
Pakistan.,30.3308401,71.247499
"Rajahmundry, Andhra Pradesh, India",17.0050454,81.7804732
"Markham, ON, CA",43.854336,-79.326782
"Ilmenau, Germany",50.6867695,10.9142385
"Palm Springs, CA",33.8246269,-116.540303
"Cassville, MO, USA",36.6770111,-93.868811
Pietermaritzburg,-29.6,30.3788889
"Potomac, MD, United States",39.017936,-77.2094542
"Juja, Kenya",-1.1015227,37.0158765
"Kerpen, Deutschland",50.3097609,6.7293316
"Ustka, Polen",54.5811254,16.8612962
"Hanoi, Hoàn Kiếm, Hanoi, Vietnam",21.02416765,105.85784045
Faridabad,28.402837,77.3085626
AZ,40.3936294,47.7872508
"Київська область, Україна",50.178595,30.4924884
"Leyte, Philippines",10.95,124.85
"Parkville, MD, United States",39.3773292,-76.5396875
"NJ, United States",40.0757384,-74.4041622
"Panay, Western Visayas, Philippines",11.1728123,122.55576877103715
"Gaziantep, Türkiye",36.9666307,37.4074178
"Montevideo, Uruguay",-34.9059039,-56.1913569
"Las Vegas, NV, United States",36.1672559,-115.1485163
Newmarket,52.2443103,0.4065503
Guangzhou,23.1301964,113.2592945
"Blumenau, SC, Brasil",-26.9195567,-49.0658025
"Pontivy, France",48.0647729,-2.9675702
"Reston, VA, United States",38.9583737,-77.3579805
"Hounslow, UK",51.4686132,-0.3613471
"Bulgaria, Sofia",42.6978634,23.3221789
"Dorayi Primary School, Kano, Nigeria",11.95699235,8.495937076491188
"Eastleigh, Edenvale, South Africa",-26.13452075,28.15699182188551
"Tuguegarao City, Cagayan Valley, Philippines",17.6125761,121.7327065
"Lahore , Pakistan",31.5656822,74.3141829
"México, D.F.",16.7317462,-93.1177441
"Querétaro, Mexico",20.8542575,-99.84756
"Arnhem, Nederland",52.0056642,5.8762345077641305
"Kelowna, BC, Canada",49.889326,-119.498291
"Bankstown NSW, Australia",-33.9171897,151.0335881
"Sophia Antipolis, France",43.619776,7.0477082
"Campo Grande, Brazil",-20.4640173,-54.6162947
"Santa Cruz, CA, USA",37.050096,-121.9905908
"Urbana, IL, USA",40.1117174,-88.207301
"127 Meredith Avenue, Frankfort, KY, USA",38.20369131358669,-84.84253530595281
Asia (remote),17.9210586,102.6163387
"Ballard, Seattle, WA, USA",47.6765073,-122.3862233
"Erechim, RS, Brasil",-27.6350143,-52.2737288
"Bucaramanga - Santander, Colombia",7.1114611,-73.1172869
"Rovinka, Slovensko",48.097582,17.2361107
"Flower Mound, TX, United States",33.0283854,-97.0867203
DE USA,38.6920451,-75.4013315
Australia ‎,-24.7761086,134.755
"SF, CA, USA",37.7790262,-122.4199061
"Frankfurt/Main, Germany",50.0537637,8.6370858
"Kraljevo, Serbia",43.7235275,20.6872991
"Channahon, IL, United States",41.4294753,-88.2286735
Србија,44.024322850000004,21.07657433209902
Chiang Mai Thailand,18.790876,98.988048
"Redding, CA",40.5863563,-122.3916754
cc,-12.0728315,96.8409375
"Rostov-na-Donu, Russia",47.2213858,39.7114196
"Hangzhou, China",30.2489634,120.2052342
Pembroke Pines,26.02322025,-80.34123906625615
Việt Nam,13.2904027,108.4265113
"College Park, MD, United States",38.980666,-76.9369189
delhi,28.6517178,77.2219388
"Concord, CA, USA",37.9768525,-122.0335624
"Tallahassee, FL, USA",30.4380832,-84.2809332
Brighton,50.8220399,-0.1374061
"Örebro, Sverige",59.2747287,15.2151181
"Renton, WA, USA",47.4799078,-122.2034496
Boulder CO,40.102555,-105.3632079
"Halifax, NS, Canada",44.648618,-63.5859487
"The Hague, Netherlands",52.07494555,4.2696802205364515
"Vero Beach, FL, United States",27.6387163,-80.3975399
"Uttara, Dhaka, Bangladesh",23.8754569,90.3996255
"Beijing, 中国",39.906217,116.3912757
"Haryana, India",29.0,76.0
"Connecticut, USA",41.6500201,-72.7342163
"Florida, FL 32801, United States",28.5421109,-81.3790304
"Pesaro, PU, Italia",43.9098114,12.9131228
Yemen,16.3471243,47.8915271
"Aguascalientes, Mexico",22.0000001,-102.5000001
"Hefei, Anhui, China",31.8228094,117.2218033
"Zhejiang, 中国",29.0000001,119.9999999
tokyo,35.6828387,139.7594549
"Ascot, UK",51.4101286,-0.6680194
l,33.7680065,66.2385139
"Enugu North, Enugu, Nigeria",6.44107845,7.538320722978639
"Urbana, IL",40.1117174,-88.207301
"Tiền Giang, Việt Nam",10.3814246,106.2352902
"Salem, VA, USA",37.293378,-80.054667
Albufeira,37.144524000000004,-8.214588148218034
"Muğla, Menteşe/Muğla, Turkey",37.215154,28.3637726
"Dhaka District, Dhaka Division, Bangladesh",23.779814950000002,90.36178191089084
"Wesel, Deutschland",51.6576909,6.617087
"Playa del Carmen, Q.R., México",20.6230711,-87.0760038
"Santa Ana, El Salvador",13.9947208,-89.5566796
"Málaga, Spain",36.7213028,-4.4216366
World,37.1215869,-121.64733399199766
"Querétaro, Santiago de Querétaro, Qro., México",20.631001,-100.449551
"Drammen, Norge",59.7436749,10.2043749
"San Carlos City, Negros Occidental, Philippines",10.492972850000001,123.3001964724624
"Amberg, Deutschland",49.4454211,11.858728
"Ajmer, Rajasthan, India",26.4691,74.639
"Rapid City, SD, USA",44.081176,-103.228006
"Udupi, Karnataka, India",13.3419169,74.7473232
"Clearwater, FL",27.9658533,-82.8001026
"Queens, NY",40.7498243,-73.7976337
"Oran, Algeria",35.7032751,-0.6492976
"Dromahair, County Leitrim, Ireland",54.2299343,-8.3014975
"Negros, Philippines",10.0206764,122.97711315607921
"Chile, santiago",-33.4377968,-70.6504451
Minnesota,45.9896587,-94.6113288
"Northern Ireland, UK",54.6294982,-6.7654416
"Guwahati, Assam, India",26.1805978,91.753943
"Lahore, Punjab, Pakistan",31.5656822,74.3141829
Bhubaneswar,20.2667774,85.8435592
"Fremont, CA, USA",37.5482697,-121.9885719
"Palermo, PA, Italia",38.1112268,13.3524434
"Guadalajara, Jalisco, Mexico",20.6720375,-103.3383962
"Piacenza, PC, Italia",45.0534751,9.6947461
"San Pedro Garza García, Nuevo Leon, Mexico",25.6651051,-100.4022714
"Kentucky, USA",37.5726028,-85.1551411
"San Francisco Bay Area, CA, USA",37.7884969,-122.3558473
Lima,-12.0621065,-77.0365256
"Maryville, MO, United States",40.3461017,-94.8724707
ddd,40.00593655,27.16787318798543
"Illinois, USA",40.0796606,-89.4337288
"Jersey City, NJ, USA",40.7281575,-74.0776417
"Rīga, Latvia",56.9493977,24.1051846
"Mok-dong, Seoul, South Korea",37.5261241,126.8645174
"Torino, TO, Italia",45.0677551,7.6824892
"General Santos City, SOCCSKSARGEN, Philippines",6.112331,125.1717145
"L'viv, Львівська область, Україна",49.841952,24.0315921
"Ruhrgebiet, Deutschland",51.51751795,7.1439182017132445
"Kolding, Denmark",55.4894999,9.47905
"Canoas, Brazil",-29.9216045,-51.1799525
"Orem, UT, USA",40.2971825,-111.694943
"Oradea, Romania",47.0549163,21.9285231
Omsk,54.991375,73.371529
"Aalestrup, Denmark",56.6952989,9.4930029
valdivia,-39.8141965,-73.2458525
"Suceava, Romania",47.53251675,25.81880138793225
"Saratov, Россия",51.530018,46.034683
"Shanghai City, China",31.2252985,121.4890497
Earth planet,52.6313623,-1.6951319
Sénégal,14.4750607,-14.4529612
Germany (Bavaria),48.9467562,11.4038717
Palo Alto,37.4443293,-122.1598465
"Hartland, WI, USA",43.105008,-88.3420398
Eastern USA,37.5170432,-82.805994
"Ely, United Kingdom",52.3998376,0.2630951
JAPAN,36.5748441,139.2394179
"Sarajevo, Federacija Bosne i Hercegovine, Bosna i Hercegovina",43.8519774,18.3866868
"glastonbury, england",51.14804,-2.716577
"Quebec, Canada",52.4760892,-71.8258668
space,-35.26562945,149.1305008240921
"Dharwad, Karnataka, India",15.4540505,75.0066516
us,39.7837304,-100.4458825
"Tula, Тульская область, Россия",54.1930321,37.61754
"Johannesburg, South Africa",-26.205,28.049722
UCR,9.940767300000001,-84.04335796461561
"Jönköping, Sverige",57.7825634,14.165719
"Champaign, IL, United States",40.1164205,-88.2433829
"Shrewsbury, MA, United States",42.283828,-71.7172866
Ciawigebang,-6.9744087,108.5805811
"Định Công, Hoàng Mai, Hà Nội, Việt Nam",20.9829534,105.8348686
Prague,50.0874654,14.4212535
"Vicenza, Province of Vicenza, Italy",45.5488306,11.5478825
"Bologna, Italia",44.4936714,11.3430347
"Split, Croatia",43.5116383,16.4399659
"Bradford, UK",53.7944229,-1.7519186
Madrid,40.4167047,-3.7035825
"Stenløse, Danmark",55.7682789,12.1985549
"Yamba, New South Wales, Australia",-33.9293617,151.2521348
"Ouro Preto, Brazil",-20.3851692,-43.5036344
"370 Pound Rd., Narre Warren South, VIC 3805 Australia",-38.0497699,145.2981217
"Isfahan, استان اصفهان، ایران",32.6707877,51.6650002
"Szeged, Magyarország",46.2546312,20.1486016
"Douai, France",50.3675677,3.0804641
Ivanjica,43.5816675,20.2304548
"Spokane, Washington, EE. UU.",47.6579425,-117.4212265
"Ukraina, Киев, город Киев, Украина",50.44668045,30.512411257202103
"Chirimiri, Chhattisgarh, India",23.178652,82.352466
"Ardabil Province, Iran",38.2514233,48.297487
"Colchester, UK",51.8896903,0.8994651
"Verdal, Norway",63.78622565,11.920335002020447
Bolton,53.5782863,-2.4300367
"Tamworth, United Kingdom",52.6345819,-1.6948438
"Pasadena, CA, United States",34.1476452,-118.1444779
"Robertsdale, AL, USA",30.5538048,-87.7119324
"Brooklyn, New York",40.6501038,-73.9495823
"Rajshahi, Bangladesh",24.5390275,88.93844161614119
"Kumasi, Ghana",6.698081,-1.6230404
"Ruckersville, VA, USA",38.2331873,-78.369175
Sweden,59.6749712,14.5208584
"Ventura County, CA, USA",34.4458248,-119.0779359
"Russia, Moscow",55.7504461,37.6174943
"Trivandrum, Kerala, India",8.5241122,76.9360573
"Dīpālpur, Punjab, Pakistan",30.6691771,73.6513733
"Falls Church, VA",38.882334,-77.1710914
"Legazpi City, Albay, Philippines",13.1388596,123.7343104
"Mountain View, CA, United States",37.3893889,-122.0832101
"Cupertino, CA, United States",37.3228934,-122.0322895
"Wageningen, Netherlands",51.9685817,5.668298061827958
"Odessa Oblast, Украина",46.1147226,29.9567193
"Surat, Gujarat, Indien",21.1864607,72.8081281
"Rolla, MO, United States",37.9509324,-91.7708076
"Ubc, Canada",49.258393749999996,-123.24658161001929
Coventry UK,52.4081812,-1.510477
NOVA,46.6851951,16.6779487
"Milpitas, CA, USA",37.4282724,-121.9066238
"New Port Richey, FL, United States",28.2441768,-82.7192671
"Brisbane Queensland, Australia",-27.4689682,153.0234991
"Darwin NT, Australia",-12.46044,130.8410469
"San Angelo, TX, USA",31.4648357,-100.4398442
"Reykjavík, Ísland",64.145981,-21.9422367
"Quebec, QC, Canada",46.8259601,-71.2352226
"Guangzhou East Railway Station, 天河区广州市中国",23.15375195,113.31902969403023
"Chester, UK",53.1908873,-2.8908955
"Kurji, Patna, Bihar, India",25.6243282,85.1100858
"Kaliningrad, Kaliningrad Oblast, Russia",54.710128,20.5105838
"Ithaca, NY, USA",42.4396039,-76.4968019
"Panipat, Haryana, India",29.3912753,76.9771675
"Coimbatore,India.",11.0018115,76.9628425
"Βερολίνο, Γερμανία",52.5170365,13.3888599
"Costa Mesa, CA",33.6633386,-117.903317
"Kalisz Pomorski, Polska",53.2981616,15.9059903
vasai,19.439884550000002,72.8803834000775
"Zrenjanin, Vojvodina",45.3802683,20.3907614
"Watford, UK",51.6553875,-0.3957425
"Brașov, Brașov County, Romania",45.6523093,25.6102746
"Steenbergen, Nederland",51.58592,4.3145758
"Blackpool, UK",53.8182212,-3.0564845
"Las Varas, Nay., México",21.2032337,-105.1571024
"Castelfidardo, Province of Ancona, Italy",43.464574,13.5467001
"Genova, GE, Italia",44.40726,8.9338624
"Chiayi City, Taiwan",23.4591664,120.2930004
"Hays, KS, USA",38.8791783,-99.3267702
wuhan,30.5951051,114.2999353
"Osaka, 大阪府日本",34.7021912,135.4955866
São Paulo / Brazil,-23.5506507,-46.6333824
"2138 Wildwood Lane, Hanover Park, IL, USA",41.94608993204029,-88.15869426086934
The Netherlands,52.5001698,5.7480821
"Oslo, Norway",59.9133301,10.7389701
"Edinburgh, UK",55.9533456,-3.1883749
"München, Deutschland",48.1371079,11.5753822
Ohio,40.2253569,-82.6881395
"128 Đường La Thành, Chợ Dừa, Đống Đa, Hà Nội",21.0202103,105.8280037
"Birmingham, United Kingdom",52.4796992,-1.9026911
Schweiz,46.7985624,8.2319736
"Andhra Pradesh, India",15.9240905,80.1863809
"La Cortinada, Andorra",42.5755678,1.5193446
"Orono, ME, USA",44.883607,-68.672791
"Leuven, Belgium",50.879202,4.7011675
"Peshawar, Pakistan",34.0123846,71.5787458
"Gdansk, Poland",54.347629,18.6452324
Mashhad,36.2974945,59.6059232
Bangkok Thailand,13.7542529,100.493087
"Newcastle upon Tyne, United Kingdom",54.9738474,-1.6131572
"Gyöngyös, Magyarország",47.7799838,19.9291176
"Lowell, Massachusetts, USA",42.6334247,-71.3161718
dalian,38.9181714,121.6282945
"Marstetten, Switzerland",47.5926085,9.0677996
"21A Kyriakou Matsi Avenue, Nicosia, Cyprus",35.1626341,33.3588943
"Kardzhali, Bulgaria",41.57161625,25.399198889947556
"Teresina, State of Piauí, Brazil",-5.0896403,-42.809588
"Carmel, Indiana, USA",39.9788017,-86.1189257
Le Havre - France,49.4938975,0.1079732
"Spalding, United Kingdom",52.7874935,-0.1516271
"Xiamen, China",24.4758496,118.0746834
"Reston, VA",38.9583737,-77.3579805
"2780 King George Blvd, Surrey, BC V4P 1A2, Canada",49.0564357,-122.8069337
"Nonya, Nigeria",5.7,7.416667
"Texas City, TX, USA",29.396013,-94.9175485
"Leatherhead, UK",51.2955038,-0.3293689
"Killeen, TX, United States",31.1171441,-97.727796
Odisha,20.5431241,84.6897321
"367 Võ Văn Tần, phường 5, Quận 3, Hồ Chí Minh, Việt Nam",10.7741768,106.6881754
x,-32.0967361,-63.7940923
"Conroe, TX, USA",30.3118769,-95.4560512
"Kempele, Suomi",64.91245,25.5108223
"JP Nagar, Bengaluru, Karnataka, India",12.2655944,76.6465404
Central NY,43.1561681,-75.8449946
"Chaco, Argentina",-26.3829647,-60.8816092
"Uberlândia - MG, Brasil",-18.9188041,-48.2767837
"West Ryde, New South Wales, Australia",-33.8094444,151.0858333
"McKinney, TX, United States",33.1976496,-96.6154471
"Castaic, CA, USA",34.4888822,-118.6228656
"Bishops Stortford, United Kingdom",51.8664372,0.1654422
"Rio de Janeiro - RJ, Brasil",-22.9110137,-43.2093727
"Raleigh, NC, USA",35.7803977,-78.6390989
"Iloilo City, Iloilo, Philippines",10.6990959,122.5433809
"Cincinnati, OH, USA",39.1014537,-84.5124602
"Omaha, NE, USA",41.2587459,-95.9383758
"Comilla, Chittagong Division, Bangladesh",23.4610615,91.1808748
"Rome, RM, Italia",41.8933203,12.4829321
Kerala,10.3528744,76.5120396
Republic of Korea,36.638392,127.6961188
"Łódź, Poland",51.7687323,19.4569911
"Harwell, United Kingdom",51.5999743,-1.2909164
"Valinhos, Brazil",-22.97056,-46.99583
"Niagara Regional Municipality, ON, Canada",43.05023,-79.12038
"Goiânia - GO, Brazil",-16.680882,-49.2532691
"Downingtown, PA, United States",40.0064958,-75.7032742
"Pensacola, FL, USA",30.421309,-87.2169149
"Sector 63, Noida, Uttar Pradesh, India",28.62399925,77.38370739533995
"Bir El Djir, Oran Province, Algeria",35.719874,-0.5675118
"KC, Missouri",39.10210685,-94.58303182212279
"Luanda Sul, Luanda, Angola",-8.9279896,13.3556068
"Gáldar, Las Palmas, España",28.1442408,-15.6542506
thrissur,10.5256264,76.2132542
"10701 Lambert International Blvd, St. Louis, MO 63145, USA",38.74957195,-90.37014071044965
THIS WORLD,52.928573650000004,-1.216157084402168
"Bilaspur, Chhattisgarh, India",22.383333,82.133333
"St. Peters, MO, USA",38.791612,-90.5958468
"Mijdrecht, Nederland",52.2129156,4.85504247480505
Fresher,52.633873,1.216996
Göteborg,57.7072326,11.9670171
"Webb City, MO",37.1435741,-94.4634702
"Nova Friburgo, RJ, Brasil",-22.2800004,-42.5325303
"Springfield, OR, USA",44.0462362,-123.0220289
iraq,33.0955793,44.1749775
"Dinajpur, Bangladesh",25.6260712,88.6346228
"Plovdiv, Bulgaria",42.1418541,24.7499297
"Windhoek, Namibia",-22.5743922,17.0790688
"Valparaiso, Chile",-33.0458456,-71.6196749
"Castellón de la Plana, Spain",39.9860347,-0.0377354
"Nanaimo, BC, Canada",49.1637594,-123.9379719
"Kirkby in Ashfield, UK",53.098935,-1.2449102
"Berlin, Deutschland",52.5170365,13.3888599
"Gwangju, South Korea",35.1595775,126.8515089
"Indianapolis, IN, USA",39.7683331,-86.1583502
"Tehran Province, Tehran, Iran",35.7006177,51.4013785
"Adana, Turkey",36.9936175,35.3258349
"Marshall, VA",38.8646975,-77.8580207
"Dexter,MO",36.7932594,-89.9532508
"Yorkshire, UK",54.5801786,-1.1761942
"New Haven, CT, USA",41.3082138,-72.9250518
"Bochum, Deutschland",51.4818111,7.2196635
"Boulder, CO, USA",40.0149856,-105.2705456
"Urbana, IL, United States",40.1117174,-88.207301
"Garmisch-Partenkirchen, Deutschland",47.4938359,11.103992
"Maharagama, Sri Lanka",6.8472783,79.9266082
Germany / Switzerland,50.92164735,14.140843951849806
"Maracaibo, Zulia, Venezuela",10.6499149,-71.6396282
"Fredericton, Canada",45.966425,-66.645813
"Sandefjord, Norway",59.1300112,10.2255602
"The Hague, The Netherlands",52.07494555,4.2696802205364515
south of french,-31.4432857,-60.9193108
"Xinjiang, China",42.4804953,85.4633464
"Munich, Niemcy",48.1371079,11.5753822
"Hamilton City, CA, United States",39.742217,-122.01252383301318
"Ponta Grossa, Paraná, Brazil",-25.0891685,-50.1601812
"Novorosijsk, Krasnodarský kraj, Russia",44.7239578,37.7690711
"Kazan, Россия",55.7823547,49.1242266
Cedar Hills,45.5050407,-122.7977031
"Kyiv, місто Київ, Україна",50.464927149999994,30.52003083688625
"Oyo, Nigeria",8.2151249,3.5642897
"Flushing, Queens, NY, United States",40.7654301,-73.8174291
"Halabja, Iraq",35.1792062,45.9873683
"Chinatown, San Francisco, CA, USA",37.7943011,-122.4063757
"Guarujá - SP, Brasil",-23.9927768,-46.2558332
"Sevilla, Spain",37.3886303,-5.9953403
South Germany,47.8439007,8.5057756
"Mansoura, Egypt",31.037566,31.38649
"Czestochowa, Poland",50.8120466,19.113213
"Bandar Lampung, Bandar Lampung City, Lampung, Indonesia",-5.4052242,105.2587105
"St Petersburg, Russie",59.9606739,30.1586551
"Pompano Beach, FL, United States",26.2378597,-80.1247667
"Ganzhou, 江西省中国",25.8332103,114.9287362
"La Garde, France",45.0691999,6.0449399
"Ulyanovsk, Russia",54.3107593,48.3642771
"Leavenworth, KS",39.3113257,-94.922759
"Eugene, Oregon, USA",44.0505054,-123.0950506
"Guadalajara, México",20.6720375,-103.3383962
Philippines,12.7503486,122.7312101
"Tucson, AZ, USA",32.2228765,-110.9748477
"Lüleburgaz, Kırklareli, Türkiye",41.4104176,27.404193149781282
"Medan, Kota Medan, Sumatera Utara, Indonesia",3.58392435,98.64248692868235
"Monterrey, México",25.6802019,-100.3152586
"Sheffield, United Kingdom",53.3806626,-1.4702278
"Ames, IA, USA",42.0267703,-93.6170554
"MA, USA",42.3788774,-72.032366
"Tel Aviv District, Israel",32.0956658,34.80625681639919
"Maadi, Cairo Governorate, Egypt",29.9603313,31.26305504108212
"Lexington, KY, USA",38.0464066,-84.4970393
"Noblesville, IN, United States",40.0455918,-86.0085955
"Perth Western Australia, Australien",-31.9527121,115.8604796
"Fort Lauderdale, Florida, Estados Unidos",26.1223084,-80.1433786
"Mérida, Yucatán, México",20.9670759,-89.6237402
"Norman, OK",35.2225717,-97.4394816
"Maryland, United States",39.5162234,-76.9382069
"127 Walter Street, Kitchener, ON, Canada",43.45463130769231,-80.50780992307692
"Yorkville, IL, United States",40.7780067,-73.9482022
"Erode, Tamil Nadu, India",11.369204400000001,77.67662686841793
"Shinjuku, Tóquio, Japão",35.6921685,139.700558
"Lombard, IL, USA",41.8864687,-88.0201536
"Mohammedia, Tunisie",36.66611935,10.169354594191294
"Surrey, UK",51.2715316,-0.3414523511290909
"Xi'erqi, Beijing, China",40.0517006,116.3000906
Vzla,10.2482174,-67.5854305
"Gravataí, RS, Brasil",-29.9440222,-50.9930938
"Tétouan, Maroc",35.570175,-5.3742776
"Eger, Magyarország",47.8989887,20.3743665
"Bhiwandi, Maharashtra, India",19.362530800000002,73.07847467842203
"La Habana, Cuba",23.135305,-82.3589631
"Los Ángeles, California, EE. UU.",34.0536909,-118.2427666
"Dhi Qar, Iraq",31.2857941,46.3068347
"Gouda, Netherlands",52.018119350000006,4.711122134697802
"Zaragoza, España",41.6521342,-0.8809428
"Karachi City, Pakistan",25.1446897,67.1847767315734
"Kannur, Kerala, India",11.8762254,75.3738043
"Adelaide SA, Australia",-34.92030445,138.59704811407516
"Bay Area, CA, United States",37.7884969,-122.3558473
"Richmond, BC, Canada",49.163168,-123.137414
new york,40.7127281,-74.0060152
Québec,52.4760892,-71.8258668
Norge,64.5731537,11.52803643954819
"Santa Fe, Santa Fe Province, Argentina",-34.4585879,-58.63667600803244
"Surabaya City, East Java, Indonesia",-7.2459717,112.7378266
"Salvador, BA, Brasil",-12.9822499,-38.4812772
"Erechim - RS, Brasil",-27.6350143,-52.2737288
"Cabo Frio - RJ, Brasil",-22.8804369,-42.0189227
"100 Old Spencer Rd Charlton, MA 01507",42.186569899999995,-71.97420395
"Amstelveen, Netherlands",52.2862177,4.852649259746028
"Hampshire, England, United Kingdom",51.04483545,-1.2434093603442158
"Palo Alto, CA, USA",37.4443293,-122.1598465
"Salamanca, Spain",40.9651572,-5.6640182
Edinburgh,55.9533456,-3.1883749
mohali,30.450764,76.0484147
"Fort Wayne, IN, United States",41.0799898,-85.1386015
"US 51 U.S. 51, Batesville, מיסיסיפי, ארצות הברית",34.3246263,-89.9417173
"Campus Drive, Irvine, CA, USA",33.6506377,-117.821424
"45 Berriman Drive, Wangara WA",-31.7935759,115.8219261
"Guaymas, México",28.0738847,-111.01852472776024
"Oceanside, CA, USA",33.1958696,-117.3794834
"Hammond, IN, USA",41.5833658,-87.500043
"Knoxville, TN, USA",35.9603948,-83.9210261
"Encarnación, Departamento de Itapúa, Paraguay",-27.0453054,-55.5710828
"1033 Marilee Glen Court, Durham, NC, USA",35.9729473,-78.9535348
"University, 曼徹斯特英國",53.4744877,-2.2412371
"Montvale, NJ, USA",41.0467635,-74.0229173
Djibouti,11.8145966,42.8453061
"Campinas - SP, Brasil",-22.90556,-47.06083
in my house 3,11.0278091,76.968645
"Trelew, Chubut, Argentina",-43.2531242,-65.3094407
"Vellore, Tamil Nadu, India",12.7948109,79.0006410968549
"Düsseldorf, Deutschland",51.2254018,6.7763137
Singapore,1.3408630000000001,103.83039182212079
Malaysia,4.5693754,102.2656823
Remote,43.0059455,-123.8925908
Dallas,32.7762719,-96.7968559
south korea,36.638392,127.6961188
Italia,42.6384261,12.674297
"Kópavogur, Iceland",64.0280441,-21.686270442142405
"Marseille, France",43.2961743,5.3699525
Tallinn,59.4372155,24.7453688
"Haifa, Israel",32.8191218,34.9983856
"Franca, SP, Brasil",-20.5381768,-47.4009795
"Minas Gerais, Brasil",-18.5264844,-44.1588654
"Livonia, MI",42.36837,-83.3527097
"Millbrae, CA, United States",37.5985468,-122.3871942
Faifa السعودية,24.6673389,46.8270549
"Gatineau, QC, Canada",45.4841214,-75.6813728
"Marquette, MI, USA",46.4481521,-87.6305899
"Apeldoorn, Nederland",52.2156457,5.9639485
"Bahía Blanca, Buenos Aires, Argentina",-38.7182364,-62.266245
"Prague, Чехия",50.0874654,14.4212535
"Dhubri, Assam, India",26.01894625,89.94188952461522
"2930 4th Avenue South, Seattle, WA 98134, USA",47.5767242,-122.3280248
"Gent, België",51.0538286,3.7250121
"Hanover, Deutschland",52.3744779,9.7385532
"Livonia, MI, United States",42.36837,-83.3527097
Long Island NY,40.85172235,-73.09921882199973
"Mataram, Nusa Tenggara Barat, Indonesia",-8.5837726,116.10685
"Jawaharlal Nehru University, New Delhi, Delhi, India",28.54831515,77.16802974836574
"Vilassar de Dalt, Spain",41.5163595,2.3592879
"Ρόδος, Ελλάδα",36.17262995,27.919418145633188
"Sophia Antipolis, Alpes-Maritimes, France",43.619776,7.0477082
"Gold Hill, Oregon, United States",42.431785,-123.050601
moon,58.5959044,23.21964608602439
"Winter Haven, FL, USA",28.0222435,-81.7328568
"Tamworth NSW, Australia",-31.0900743,150.9290159
"1090 Elmlea Drive, Gloucester, ON, Canada",45.4390738,-75.60182877790447
Ede osun state nigeria,7.733333,4.433333
"North Somerset, UK",51.39663045,-2.769128923864108
"Darwin, Northern Territory, Australia",-12.46044,130.8410469
"Troy, NY, United States",42.7284117,-73.6917878
"Serbia, Niš",43.321504,21.8957301
"Clarksville, TN, USA",36.5277607,-87.3588703
everywhere,46.9599823,22.0541733
"Ibaté, State of São Paulo, Brazil",-21.9554092,-47.9989614
"Lahti, Finland",60.9838761,25.6561814
"BTM 2nd Stage, Bengaluru, Karnataka, India",12.9140788,77.6188862
Riyadh Saudi Arabia,24.6319692,46.7150648
"Định Công, Hoàng Mai, Hà Nội, Vietnam",20.984805,105.83382309049048
"Sylmar, Los Angeles, CA, USA",34.3076252,-118.4492148
NJ,40.0757384,-74.4041622
"Nowy Jork, Stany Zjednoczone",40.7127281,-74.0060152
Pangasinan,15.916667,120.333333
"Sierra Vista, AZ, United States",31.5455709,-110.2772249
"Fernandes Tourinho, MG, Brasil",-19.152778,-42.083056
"Riyadh, Saudi Arabia",24.6319692,46.7150648
Home,51.8277408,9.0207583
"Washington D.C., United States",38.8949855,-77.0365708
"Baniyas, Tartūs, Syria",35.1820319,35.9449068
"Ekaterinburg, Свердловская область, Russia",56.839104,60.60825
"Maceió - AL, Brasil",-9.6476843,-35.7339264
Take a guess...,-37.54024715,143.8286678650098
"Yenihisar, Turkey",39.2150457,43.0069751
fran,34.9250265,-85.1262804
China浙江省杭州市,30.2489634,120.2052342
"Bandung, Indonesia",-6.9344694,107.6049539
"Germantown, Maryland, USA",39.1731621,-77.2716502
"Champaign, IL",40.1164205,-88.2433829
"Incheon, 대한민국",37.456,126.7052
"Chester, United Kingdom",53.1908873,-2.8908955
"Crète, Grecia",35.3084749,24.463320724202934
中国浙江杭州,30.2489634,120.2052342
Łódź,51.7687323,19.4569911
"Казань, Россия",55.7823547,49.1242266
vancouver,49.2608724,-123.1139529
West London,51.5073219,-0.1276474
"Ecuador, Guayaquil, Ecuador",-3.4955123,-80.2059282
"Kielce, Polska",50.85403585,20.609914352101452
Turkey,38.9597594,34.9249653
"Limassol, Cyprus",34.6852901,33.0332657
"Rajkot, Gujarat, India",22.3051991,70.8028335
"Stockholm, Sverige",59.3251172,18.0710935
"Ottawa, ON, Canada",45.421106,-75.690308
"Himachal Pradesh, India",31.81676015,77.34932051968858
"Dnipro, Днепропетровская область, Украина",48.4680221,35.0417711
Dubai - دبي - الإمارات العربية المتحدة,25.2047397,55.2707065
"Sonepat, Haryana, India",28.99197,77.0342633
"Champcevinel, France",45.2155556,0.7272222
"Ludwigshafen am Rhein, Germany",49.4704113,8.4381568
Penha - SC,-26.775418,-48.6465251
Manchester,53.4794892,-2.2451148
NY/NJ Border,40.9980183,-73.9042739
"Centurion, Gauteng, South Africa",-25.836389,28.180278
"Bodø, Norge",67.2839476,14.3825834
GuangZhou,23.1301964,113.2592945
Braga,41.5510583,-8.4280045
"İzmit, Kocaeli, Türkiye",40.765382,29.9406983
"Ahmedabad, India",23.0216238,72.5797068
"Regensburg, Deutschland",49.0195333,12.0974869
"Mansourah, Egypt",31.037566,31.38649
"Nashville, Tennessee United States",36.1622296,-86.7743531
"Naples, Italy",40.8359336,14.2487826
"Frederick, MD, USA",39.4142186,-77.4109269
Saskatoon Sk Canada,52.131802,-106.660767
"Washington, D.C., DC, USA",38.8949855,-77.0365708
Oceanside,33.1958696,-117.3794834
"Tartu, Tartu linn, Eesti",58.37484375,26.730243779564816
U.K,54.7023545,-3.2765753
"Sint-Michielsgestel, Netherlands",51.6391001,5.3515392
"Lethbridge, Canada",49.694285,-112.851562
"Dhamrai, Dhaka Division, Bangladesh",23.920162,90.2108702
"Ratnapura, Sri Lanka",6.6803691,80.4022975
"Plóvdiv, България",42.1418541,24.7499297
"Jerez de la Frontera, Spain",36.6816936,-6.1377402
"Corby, UK",52.48763,-0.701543
Gauteng,-25.9363439,28.0813105
"Champaign-Urbana, Illinois, East University Avenue, Champaign, IL, USA",40.1157948,-88.241194
University of kelaniya,6.97421895,79.91538768521929
Oakland,37.8044557,-122.2713563
"Edmonton, Canada",53.535411,-113.507996
"Washington, United States",38.8949855,-77.0365708
"Dallas, TX, United States",32.7762719,-96.7968559
"Cambridge, MA, USA",42.3750997,-71.1056157
chicago,41.8755616,-87.6244212
"Sfax, Tunisie",34.8433201,10.5178537
"The Colony, TX, United States",33.0890094,-96.8863922
"4832 Payne Avenue, Cleveland, OH 44103",41.51204963316583,-81.65370972361809
"Lancaster, UK",54.0484068,-2.7990345
"Fort Benning, GA, United States",32.3523691,-84.9688191
"Bournemouth, United Kingdom",50.7194784,-1.8767712
"Geneva, Switzerland",46.2017559,6.1466014
"New Orleans, LA, USA",29.9499323,-90.0701156
Bangalore India,12.9791198,77.5912997
"1100 K Street Northwest, Washington, DC, United States",38.9025677,-77.0503571
"Palermo, Italy",38.1112268,13.3524434
Naperville,41.7728699,-88.1479278
"Christiansburg, VA, USA",37.1298517,-80.4089389
"Guayaquil, Guayas, Ecuador",-2.1899066,-79.887726
Adelaide,-34.9281805,138.5999312
"Jharkhand, India",23.4559809,85.2557301
"Palestine, TX",31.7621153,-95.6307891
"Sittard, Nederland",50.9974235,5.8666627
"Mahendragarh, Haryana, India",28.25,76.166667
Jakarta,-6.1753942,106.827183
"Hampshire, United Kingdom",51.04483545,-1.2434093603442158
"Axe Creek VIC, Australia",-36.7701861,144.4332301
Georgia USA,32.3293809,-83.1137366
"Fort Hood, TX",31.20143875,-97.77175781353557
"National Chiao Tung University, 東區新竹市台灣",24.78676765,120.99724411680712
dhaka,23.810651,90.4126466
"Sinsa-dong, Seoul, South Korea",37.52522,127.02005
"Mexico City, Mexico",19.4326296,-99.1331785
"Los Angeles, CA, United States",34.0536909,-118.2427666
"Liverpool, United Kingdom",53.407154,-2.991665
"Vasai East, Vasai, Maharashtra, India",19.3428238,72.805441
"Serbia, Belgrade",44.8178131,20.4568974
"Toulouse, France",43.6044622,1.4442469
Jammu,32.7185614,74.8580917
"HBR Layout, Bangalore, Karnataka, India",13.0358698,77.6323597
Frankfurt,50.1106444,8.6820917
Meylan,45.2092471,5.7811983
Delft,51.999457199999995,4.362724538543995
"Tarrytown, NY, USA",41.0762077,-73.8587461
"Santa Rosa, CA",49.26334185,-123.10249427487639
"Marivan, Kurdistan Province, Iran",35.5219063,46.1758889
Montpellier,43.6112422,3.8767337
"Burlingame, CA",37.5841026,-122.3660825
Pattaya Chon Buri Thailand,12.931941,100.9009534
"Muscat, Oman",23.5997857,58.5451305
"Reno, NV",39.5261206,-119.8126581
Vegas,22.7362659,-81.8159182
"Bohol, Philippines",9.833333,124.1615579
"Santa Rosa Beach, FL, United States",30.3466423,-86.2307992
"Changchun, 吉林省中国",43.8882168,125.3182578
"Salé, Salé, Maroc",34.044889,-6.814017
"Atlantic, NS, Canada",43.5832297,-65.3419683
"Wallingford, CT, United States",41.4570418,-72.8231552
"Luang Prabang, Luang Prabang Province, Laos",19.8887438,102.135898
"Newton, GA, USA",33.5715512,-83.8446101
"Gasan digital 1-ro, Gasan-dong, Geumcheon-gu, Seoul, South Korea",37.4687294,126.8838195
"Uzbekistan, Узбекистан",41.32373,63.9528098
"Champaign-Urbana, IL",40.1157948,-88.241194
"Barasat, West Bengal, India",22.7176238,88.4889529
"Guelph, ON, Canada",43.5460516,-80.2493276
España,39.3262345,-4.8380649
"Bellevue, WA, United States",47.6144219,-122.1923372
"Palo Alto, CA",37.4443293,-122.1598465
"Comilla, Bangladesh",23.4610615,91.1808748
"Sun City West, AZ, United States",33.6657535,-112.35505216920794
"Columbus, OH",39.9622601,-83.0007065
"Worcester, MA, United States",42.2625932,-71.8022934
Malawi,-13.2687204,33.9301963
"Ukraine, Kyivs'ka oblast",50.178595,30.4924884
Russie,64.6863136,97.7453061
Nowhere,52.7395569,1.0826808
"Chihuahua, Chih., México",28.35609005,-106.81628565271993
"Brasilia - Federal District, Brazil",-15.7934036,-47.8823172
Wuhan,30.5951051,114.2999353
"Kampala, Uganda",0.3177137,32.5813539
Pescara (Italy),42.3102619,13.95759010584892
"Reading, PA, USA",40.335345,-75.9279495
"Mandaluyong, Philippines",14.5777807,121.0332295
"Ulhasnagar, Maharashtra, India",19.19714465,73.18986842216808
"Biloxi, MS, United States",30.374673,-88.84594333482862
"Sergipe, Brasil",-10.6743911,-37.3773519
"Szczecin, Polska",53.4301818,14.5509623
"East Lansing, MI, USA",42.7355416,-84.4852469
Earth?,34.2331373,-102.4107493
"Bootle, UK",53.4506931,-2.9948834
"Canada,QC",52.4760892,-71.8258668
Cuenca,40.0681156,-2.1348241
"Morrisville, NC, United States",35.824341,-78.8300321
deutschland,51.0834196,10.4234469
"Kuwait City, الكويت‎",29.3797091,47.9735629
"Poznań, Poland",52.4082663,16.9335199
"Trivandrum, India",8.5241122,76.9360573
Dijon,47.3215806,5.0414701
"Paradise, CA, United States",39.7596061,-121.6219177
"London, Wielka Brytania",51.5073219,-0.1276474
"Courrières, France",50.4521,2.94621
"Ushuaia, Tierra del Fuego, Argentina",-54.8069332,-68.3073246
Beijing,39.906217,116.3912757
天狼星,31.44327,106.51775
"Boulder, Colorado",40.0149856,-105.2705456
DC,4.59808,-74.0760439
Iraq,33.0955793,44.1749775
"Auckland, New Zealand",-36.852095,174.7631803
Dubai - United Arab Emirates,25.0750095,55.18876088183319
New york,40.7127281,-74.0060152
"Staffanstorp, Sverige",55.650285350000004,13.220185689361951
localhost,51.3210437,4.9367415
"New Bedford, MA, United States",41.6362152,-70.934205
"Geneve, Ginevra, Svizzera",46.2017559,6.1466014
"Morges, Suisse",46.5093268,6.498317
"Mykolaiv, Mykolaivs'ka oblast, Ukraine",47.056992,31.919305200021185
"Cauayan City, Isabela, Philippines",16.937050550000002,121.76937810009525
"Pasig City, Metro Manila, Philippines",14.5605501,121.0764246
pakistan lahore,31.5656822,74.3141829
"Norfolk, VA, USA",36.8889933,-76.2481624
Prishtina,42.6638771,21.1640849
"Kuala Lumpur, Malaysia",3.1516964,101.6942371
"Valparaiso, IN",41.4730948,-87.0611412
"Yogyakarta, Indonesia",-7.8011945,110.364917
"Putrajaya, Malaysia",2.9140567,101.6838531
PJ Selangor Malaysia,3.13964625,101.58963737989805
"Vigo, España",42.2376602,-8.7247205
"Coalinga, CA, United States",36.16101585,-120.29451920454291
"Costa Mesa, CA, United States",33.6633386,-117.903317
"Brookline, MA, United States",42.3317642,-71.1211635
"Ra'anana, ישראל",32.1862752,34.8692427
"Naperville, IL, USA",41.7728699,-88.1479278
La Habana Cuba,43.056754,141.349583
"Pensilvania, Verenigde Staten",40.9699889,-77.7278831
"Newcastle, United Kingdom",54.9738474,-1.6131572
"Lipetsk, Russia",52.6946301,39.4278734
"California City, CA, USA",35.125801,-117.9859038
"Nevada, United States",39.5158825,-116.8537227
"Nashua, NH, USA",42.7653662,-71.467566
"Honolulu, HI",21.304547,-157.8556764
"Heilbronn, Deutschland",49.142291,9.218655
"Lennox Head, NSW, Australia",-28.7910334,153.5878047
"Grayslake, IL",42.3433518,-88.0412192
"Natal, State of Rio Grande do Norte, Brazil",-5.805398,-35.2080905
"Senai, Malaysia",1.6012009,103.6446799
Germany,51.0834196,10.4234469
"San Francisco, CA, United States",37.7790262,-122.4199061
"Quito, Ecuador",-0.2201641,-78.5123274
Europe,51.0,10.0
"Anand, Gujarat, India",22.5584995,72.9625629
"Markham, ON, Canada",43.854336,-79.326782
"Milano, MI, Italia",45.4668,9.1905
"Gwalior, Madhya Pradesh, India",26.2037247,78.1573628
"Warsaw, Poland",52.2319581,21.0067249
"Brookings, SD, United States",44.3763598,-96.7925213
"Poland, Wrocław",51.1089776,17.0326689
"Las Vegas, NV, USA",36.1672559,-115.1485163
"Roswell, GA",34.02332,-84.360022
"Marshall, TX, USA",32.5447756,-94.3661004
"Moldova, Chisinau",47.0244707,28.8322534
"Kaunas, Kauno apskritis, Lietuva",54.8982139,23.9044817
"Sleman, Special Region of Yogyakarta, Indonesia",-7.6952864000000005,110.34462923977276
"Palestine, Gaza-Strip",31.4331663,34.3779285
Student,33.435226099999994,-111.67542503028747
Bern,46.9482713,7.4514512
"Roseville, CA, USA",38.7521235,-121.2880059
"Largo, FL, USA",27.9094665,-82.7873244
"San Jose del Monte City, Bulacan, Philippines",14.8110432,121.0491569
"Brooklyn, NY 11204, USA",40.6501038,-73.9495823
"Dombivli, Maharashtra, India",19.2180493,73.0861355
"Cypress, CA, USA",33.8248235,-118.0399368
"Chislehurst, UK",51.4115718,0.0769545
"Parets, Barcelona, España",41.5729887,2.2329289
Trainer,39.8276126,-75.4143604
"Tilburg, Netherlands",51.55847,5.083076
Eastern Europe,50.26595295,18.697591604165567
"Wuppertal, Deutschland",51.264018,7.1780374
"Virginia, United States",37.1232245,-78.4927721
"Bhilai, Chhattisgarh, India",21.2120677,81.3732849
"Montréal, 魁北克省加拿大",45.4950448,-73.6410503
"Cambridge, UK",52.2034823,0.1235817
Oregon,43.9792797,-120.737257
"Ja-Ela, Western Province, Sri Lanka",7.0793775,79.8907632
"Punjab, India",30.9293211,75.5004841
"Espoo, Finland",60.2241869,24.6603626
"Rishon LeTsiyon, Israel",31.9635712,34.8101149
"Lawrenceburg, TN, USA",35.2423023,-87.3347389
"Chapel Hill, NC, United States",35.9131542,-79.05578
"Idaho Falls, ID, United States",43.4935245,-112.0400919
"Kilvakkala, Suomi",61.7598807,23.0029307
"Mannheim, Deutschland",49.489591,8.467236
대한민국 경기도 Suwon,37.2633325,127.0287472
Business Bay - Dubai - United Arab Emirates,25.1888276,55.26502162117366
"München, Germany",48.1371079,11.5753822
"Leicester, UK",52.6361398,-1.1330789
"Waterlooville, United Kingdom",50.8797911,-1.0314789
"Cotonou, Bénin",6.3676953,2.4252507
"Southampton, 英国",50.9025349,-1.404189
Lisbon,38.7077507,-9.1365919
"Oberkassel, Bonn, Germany",50.7120872,7.1674682
"San Diego, 加利福尼亚州美国",32.7174209,-117.1627714
"Prishtina, Kosovo",42.6638771,21.1640849
"Recife, Pernambuco, Brasil",-8.0584933,-34.8848193
"Gillett, PA",41.9511852,-76.7944002
"HSBC Building, Hong Kong",22.2809085,114.186602
"Presidente Prudente - SP, Brasil",-22.1276335,-51.41624990198266
Vilvoorde,50.9287524,4.4228712
"Juiz de Fora, State of Minas Gerais, Brazil",-21.7609533,-43.3501129
"Woodstock, NY",42.0410578,-74.1182492
Roy,40.8777792,-93.5927169
"Sanaã, Yemen",15.3538569,44.2058841
Pabna,24.005,89.25
"Berhampore, West Bengal, India",24.0510297,88.23779874587402
"Lyon, France",45.7578137,4.8320114
"Poznań, Polska",52.4082663,16.9335199
"Texas, United States",31.8160381,-99.5120986
"Peking, 北京市中国",39.906217,116.3912757
"Brandon, MB, Canada",49.8511143,-99.9608924
"Khulna, Bangladesh",22.815139549999998,89.44492672055918
"Guangzhou, Guangdong, China",23.1301964,113.2592945
"Calicut, Kerala, India",11.2446144,75.7759372
"Batam, Kota Batam, Kepulauan Riau, Indonesia",1.1073871,104.07986334520189
"Jundiaí - State of São Paulo, Brazil",-23.1887866,-46.8845122
"Washington Court House, OH",39.5364511,-83.4390843
ISTANBUL,41.0096334,28.9651646
"wuhan,china",30.5951051,114.2999353
Alexandria,31.199004,29.894378
"Marshalltown, IA, United States",42.0442545,-92.9123388
"Guthrie, OK, United States",35.8789231,-97.4252772
"Murfreesboro, TN, United States",35.845999,-86.3920452
"Midway, GA, United States",31.805769,-81.4306642
Christchurch,-43.530955,172.6366455
"Patra, Ελλάδα",38.246242,21.7350847
"Cochín, Kerala, India",9.931308,76.2674136
"West Chester, PA, USA",39.9597213,-75.6059638
"Logan, UT, USA",41.7313447,-111.8348631
"Lowell, MA, United States",42.6334247,-71.3161718
"Rhode Island, United States",41.7962409,-71.5992372
"Recife-PE, Brasil",-8.0584933,-34.8848193
"Franklin, MA, USA",42.0834313,-71.396725
"Scranton, PA, USA",41.4086874,-75.6621294
"Vanves, France",48.8212037,2.289259
"Belagavi, Karnataka, India",15.8572666,74.5069343
Wissen,50.7829232,7.7344766
"Upstate, NY",40.7263224,-73.9864498
01,37.5666791,126.9782914
Quebec / Canada,52.4760892,-71.8258668
Classified,22.2799783,114.1925458
"Trani, BT, Italia",41.275088,16.4162585
"Dublin, CA",43.4984009,-81.2911804
Cambodia,13.5066394,104.869423
:D,10.0,-67.166667
"Uyo, Nigeria",5.0322447,7.924791
"Tsukuba, Ibaraki Prefecture, Japan",36.0833877,140.0765098
"Rabat, Maroc",34.022405,-6.834543
Stockholm,59.3251172,18.0710935
"Sanbon-dong, 군포시 경기도 대한민국",37.3704501,126.9299906
"Bratislava, Slovensko",48.1516988,17.1093063
"Warendorf, Deutschland",51.9532449,7.9912335
"Wijchen, Nederland",51.8099983,5.7362233
"Ananindeua - PA, Brasil",-1.374035,-48.4016623
"San Ramon, CA, USA",37.7648021,-121.9544387
"Pilsen, Czech Republic",49.7477415,13.3775249
"Ciudadela, Buenos Aires, Argentina",-34.633603,-58.5426528
"Samsun, Turkey",41.2303557,35.9683338
"Casa Grande, AZ, United States",32.8795022,-111.7573521
"Haren, Nederland",53.1709841,6.6061413
"Oakville, ON, Canada",43.447436,-79.666672
"Vilches, Spain",38.2107652,-3.5130577
"Veracruz, Ver., México",19.1798858,-96.135648
Afghanistan,33.7680065,66.2385139
"Bagumbong, Caloocan, Metro Manila, Philippines",14.752562,121.017565
Philadelphia,39.9527237,-75.1635262
"Blackburn, United Kingdom",53.749326,-2.4840566
"Overland Park, KS, United States",38.9742502,-94.6851702
"Eastbourne, UK",50.7685761,0.2957854
"Benghazi, Libya",32.1288331,20.0817204
"Saratoga Springs, NY, USA",43.0821793,-73.7853915
CTO,13.2193663,79.1033126
Patna,25.6093239,85.1235252
Satara,17.63612885,74.29827807601782
"Lisse, Nederland",52.2540183,4.541928029675811
"Athens, GA, USA",33.9597677,-83.376398
"Tampa, Florida, USA",27.9477595,-82.458444
Oxford,51.7520131,-1.2578499
"Vasant Kunj, New Delhi, Delhi, India",28.5292495,77.1541335
"Merced, CA, United States",37.1641544,-120.7678602
"Augsburg, Germany",48.3668041,10.8986971
"Ieper, België",50.85169675,2.891473683275896
"Conroe, TX, United States",30.3118769,-95.4560512
"Chillicothe, MO",39.7948749,-93.5532779
Copenhagen Denmark,55.6867243,12.5700724
"Weingarten, Germany",47.8075299,9.6431145
"Hanoi, Vietnam",21.0294498,105.8544441
"Hồ Chí Minh, Việt Nam",10.7758439,106.7017555
"Bokaro Steel City, Jharkhand, India",23.6579595,86.0839161
"Yekaterinburg, Россия",56.839104,60.60825
"Alabama 35741, United States",43.096448,-78.390856
"Bhubaneswar, India",20.2667774,85.8435592
Jordan,31.1667049,36.941628
Rwanda,-1.9646631,30.0644358
"Porto Alegre - RS, Brazil",-30.0324999,-51.2303767
"Chihuahua, México",28.5000001,-106.0000001
"Yazd Province, Iran",32.2452686,55.105172
"Dortmund, Germany",51.5142273,7.4652789
"Inverness, United Kingdom",57.4790124,-4.225739
"Boca Raton, FL, USA",26.3586885,-80.0830984
"ایران, تهران",35.7006177,51.4013785
"Warangal, Telangana, India",17.9806094,79.5982115
"Pondicherry, Puducherry, India",11.9340568,79.8306447
Kattegat,56.92436925,11.324165835392506
"Québec City, QC, Canada",46.8259601,-71.2352226
"Makati, NCR, Philippines",14.5568853,121.023532
"Marysville, OH",40.2364486,-83.3671432
"Mountain View, CA, USA",37.3893889,-122.0832101
"Kawaguchi, Saitama-ken, Japan",35.8019257,139.7175116
"Gothenburg, Sverige",57.7072326,11.9670171
"Pune , India",18.521428,73.8544541
"1B Delamare Ct, Sunnynook, Auckland 0632, New Zealand",-36.7498069,174.7447064
"Rosedale, California, United States of America",35.3777238,-119.14565861581144
"Ho Chi Minh city, Viet Nam",10.7758439,106.7017555
"Waterloo, Canada",43.466874,-80.524635
"Hinganghat, Maharashtra, India",20.475194950000002,78.74239647465441
"South Bend, IN, United States",41.6833813,-86.2500066
Maldives,4.7064352,73.3287853
"Hebron, Palestine",31.528902,35.0944873
Wien,48.2083537,16.3725042
"Kalutara, Sri Lanka",6.5835219,79.9612508
"Detroit, MI, USA",42.3315509,-83.0466403
"Ankara, Turkey",39.9207774,32.854067
Auckland,-36.852095,174.7631803
"Torquay, United Kingdom",50.4652392,-3.5211361
"Limoges, France",45.8354243,1.2644847
Sudan,14.5844444,29.4917691
"Chelyabinsk, Россия",55.1598408,61.4025547
"Lugo, Spain",43.0462247,-7.4739921
"Markleeville, CA, United States",38.6671855,-119.83128225726742
Dubai - Forenede Arabiske Emirater,25.0750095,55.18876088183319
"Naples, FL, United States",26.1421976,-81.7942944
"535 Smithfield Street, Pittsburgh, PA 15222, USA",40.4412515,-79.99822731256296
Q,-14.7067141,-75.1308498
"Lipetsk, Lipetsk Oblast, Russia",52.6946301,39.4278734
"Shah Alam, Selangor, Malaysia",3.0898294,101.53116264843747
"Nouakchott, Mauritania",18.0792379,-15.9780071
"Bend, OR, United States",44.0581728,-121.3153096
"Ukraine, Kiev, Украина",50.4485461,30.527281356466336
"Clarksburg, MD, USA",39.2387164,-77.2794288
"Sinaloa, Mexico",25.0000001,-107.5000001
So High,40.33057,-84.090309
"Dhank, Gujarat, India",21.7747571,70.1315151
"Liege, Belgium",50.6451381,5.5734203
"Duisburg, Deutschland",51.434999,6.759562
"Pasadena, Kalifornie, Spojené státy americké",34.1476452,-118.1444779
"Albuquerque, NM, USA",35.0841034,-106.6509851
"Castelo Branco, Portugal",39.97675825,-7.446059929966704
Andhra Pradesh,15.9240905,80.1863809
"Foster City, CA, USA",37.5600336,-122.2688522
"Excelsior, MN, USA",44.9032963,-93.5663455
"Dover, DE, USA",39.158168,-75.5243682
"Blotzheim, France",47.6014104,7.4966546
"Salem, Tamil Nadu, India",11.6612012,78.1602498
"Oak Brook, IL, United States",41.8371265,-87.94555605930398
"Breckenridge, CO, United States",39.4829124,-106.0465486
"San Mateo, Rizal, Calabarzon, Philippines",14.6954505,121.1177632
"Gaines, MI, United States",42.8725303,-83.9141254
paris,48.8566969,2.3514616
"123 Rue de la Version, La Guérinière, France",46.9720168,-2.2510892
"Faridabad, Haryana, India",28.402837,77.3085626
"Redmond, WA, USA",47.6694141,-122.1238767
"East Lansing, MI, United States",42.7355416,-84.4852469
"Viana do Castelo, Portugal",41.8803257,-8.523255293554342
"Providence, RI, USA",41.8239891,-71.4128343
"Skräddaregatan, Borrby, Sverige",55.4597996,14.1849051
"Kyiv, Украина",50.4500336,30.5241361
Sai gon - Viet Nam,10.7758439,106.7017555
"Miami, FL, United States",25.7742658,-80.1936589
"Multan, Pakistan",30.1979793,71.4724978
"Nottingham, United Kingdom",52.9534193,-1.1496461
"Cluj-Napoca, Romania",46.769379,23.5899542
"Fallbrook, CA, USA",33.3764196,-117.2511466
"Malabon, Metro Manila, Philippines",14.675233,120.9573542
"Pernambuco, Brazil",-8.4116316,-37.5919699
cn,35.000074,104.999927
"Shiraz, Fars, Iran",29.6060218,52.5378041
"Ennis, Ireland",52.8435152,-8.983747
"D.C., DC, United States",38.7569363,-76.7057329
"Mangaldan, Pangasinan, Philippines",16.0666129,120.4010471
"Taiwan, Taipei City",25.0452747,121.5078001
China Jinan Shi,36.6507007,117.1140042
"Woodside, Queens, NY, United States",40.7461604,-73.9032853
CN,35.000074,104.999927
"West Java, Indonesia",-6.8891904,107.6404716
"Alkmaar, Nederland",52.6312592,4.7503798
"Baton Rouge, LA",30.4459596,-91.18738
"North East, MD",39.5162234,-76.9382069
"Katowice, Польша",50.2598987,19.0215852
"Novi Pazar, България",43.3472116,27.1956421
"Rancho Santa Margarita, CA, United States",33.6408845,-117.6029341
"Jambi, Kota Jambi, Jambi, Indonesia",-1.6296917,103.6077806
"Springfield, OR, United States",44.0462362,-123.0220289
"Madhabdi, বাংলাদেশ",23.8547857,90.6732922
"Bataan, Philippines",14.666667,120.416667
"Pivka, Slovenia",45.6825561,14.1956401
"Anderson, SC, USA",34.5068601,-82.6506264
"Wuhan, Hubei, China",30.5951051,114.2999353
"Zagreb, Croatia",45.813177,15.977048
"Brisbane QLD, Australia",-27.4689682,153.0234991
"Cambridge, MA, United States",42.3750997,-71.1056157
"Heidelberg, Germany",49.4093582,8.694724
"Lvov, Львовская область, Украина",49.841952,24.0315921
"Graz, Österreich",47.0708678,15.4382786
"Yogyakarta City, Special Region of Yogyakarta, Indonesia",-7.8011945,110.364917
Satélite,-11.985737,-43.893489
"Lucknow, India",26.8381,80.9346001
Los Angeles,34.0536909,-118.2427666
Swindon,51.5613683,-1.7856853
"Earth City, MO, USA",38.7689401,-90.4681741
"Plano, TX, United States",33.0136764,-96.6925096
"Tannersville, PA, USA",41.0400917,-75.3057387
"Parel, Mumbai, Maharashtra, India",19.0094817,72.8376614
"Las Rozas de Madrid, Madrid, España",40.4933095,-3.8758396
"Furlong, PA",40.2962179,-75.082115
morocco,31.1728205,-7.3362482
Glasgow,55.8609825,-4.2488787
"Louisiana, USA",30.8703881,-92.007126
"Honolulu, HI, USA",21.304547,-157.8556764
"Gaborone, Botswana",-24.6581357,25.9088474
"Hadera, Israel",32.43699,34.9198258
/home/,51.8277408,9.0207583
Vadodara,22.2973142,73.1942567
"Parigi, Francia",48.8566969,2.3514616
"Palmira, Valle del Cauca, Colombia",3.5308373,-76.2988048
"Paris, TX, USA",33.6617962,-95.555513
"Tangier, Maroc",35.777103,-5.803792
"East Java, Indonesia",-7.6977397,112.4914199
"Canterbury, United Kingdom",51.2800275,1.0802533
"Tübingen, Germany",48.5236164,9.0535531
"Alpharetta, GA, USA",34.0709576,-84.2747329
"Eskişehir, Turkey",39.6821156,31.0723476
"Brasil, Uberlândia - MG",-18.8941408,-48.2622678
"Embu das Artes - SP, Brasil",-23.6495294,-46.8528497
"Suwon, South Korea",37.2633325,127.0287472
"Grahamstown, South Africa",-33.3070589,26.5272648
France,46.603354,1.8883335
"Wisconsin, USA",44.4308975,-89.6884637
"Darmstadt, Germany",49.872775,8.651177
"Alphen aan den Rijn, Nederland",52.1343369,4.6561357
"Bratislava, Slovakia",48.1516988,17.1093063
Swiss,46.7985624,8.2319736
"Huntersville, NC",35.410845,-80.8429094
Bandar Sunway Petaling Jaya Selangor Malaysia,3.0748557,101.6114146
"Delft, Nederland",51.999457199999995,4.362724538543995
"Kreuzlingen, Switzerland",47.6464362,9.1725621
"Islamabad,Pakistan",33.6938118,73.0651511
"Northampton, MA",42.323344,-72.6718895
"Ohio, United States",40.2253569,-82.6881395
"SPb, Saint Petersburg, Russia",59.938732,30.316229
"1912 Leonidas Street, New Orleans, LA, USA",29.956135500000002,-90.12860585
"Bristol, United Kingdom",51.4538022,-2.5972985
"Parker, CO, United States",39.53210905,-104.78736936215242
"Kyoto, 京都府 日本",35.021041,135.7556075
"Etawah, Uttar Pradesh, India",26.718324350000003,79.09025375025163
"Tashkent, Узбекистан",41.3123363,69.2787079
Las Veags,28.03638895,-15.48878805
melbourne,-37.8142176,144.9631608
"National Institute of Technology, Sector 1, Rourkela, Odisha, India",22.2501589,84.90668556980866
the void,48.5914619,6.5912872
"Cheboksary, Russia",56.1307195,47.2449597
"México D.F., México",16.7323714,-93.1177512
"Wankaner, India",22.6153934,70.9495617
Escondido,33.1216751,-117.0814849
"Göttingen, Deutschland",51.5327604,9.9352051
"Vientiane, ลาว",17.9640988,102.6133707
"Stoke-on-Trent, UK",53.0162014,-2.1812607
"Rajkot, Gujarat",22.3051991,70.8028335
"Άργος, Ελλάδα",37.6349825,22.7285119
"IL, USA",39.7837304,-100.4458825
"Frisco, TX, USA",33.1506744,-96.8236116
"Palestine, AR, USA",34.9723153,-90.9026158
"Ipoh, Malaysia",4.5986817,101.0900236
Greece,38.9953683,21.9877132
"Groningen, Nederland",53.2190652,6.5680077
"New Jersey, United States",40.0757384,-74.4041622
"Tampa Palms, Tampa, FL, USA",28.0861,-82.359
my car,45.87891260000001,11.030030639186702
Ernakulam,9.9825665,76.2990313
"Straubing, Deutschland",48.8819801,12.569716
lebanon,33.8750629,35.843409
"Bahawalpur, Pakistan",29.394644,71.6638747
"Lviv, Lviv Oblast, Ukraine",49.841952,24.0315921
"Milford, NH, USA",42.8355775,-71.6495345
"China Art Museum, Shanghai, China",31.18714625,121.4892365
"Manila, Philippines",14.5907332,120.9809674
"Sveti Filip i Jakov, Croatia",43.9630458,15.4281013
"Southborough, MA, USA",42.3056501,-71.5245087
"Renton, WA, United States",47.4799078,-122.2034496
"Yoqneam, Israel",32.6480601,35.0943545
there,46.1709669,-0.2436202
"Orange County, CA",33.7500378,-117.8704931
"Tromsø, Norway",69.649208,18.9543434
"Nairobi West, Nairobi, Kenya",-1.3087022,36.8230975
"Kinston, NC, USA",35.2626635,-77.5816353
"La Habra, CA, USA",33.9316066,-117.9454867
"Hamden, CT",41.3959287,-72.8968716
"Haerbin, 黑龙江省中国",45.7656666,126.6160584
"Seoul, Korea Republic",37.542226799999995,127.00449955
"Новороссийск, Россия",44.7239578,37.7690711
"Wien, Austria",48.2083537,16.3725042
"Moerstraten, Netherlands",51.5407246,4.3425938
"Nonthaburi, อำเภอเมืองนนทบุรี นนทบุรี ประเทศไทย",13.8628954,100.5146478
"Haugesund, Norway",59.4154805,5.2636464
"Blumenau, State of Santa Catarina, Brazil",-26.9195567,-49.0658025
Sarajevo,43.8519774,18.3866868
"Ife, Nigeria",7.481356,4.551406
"Fayetteville, AR, USA",36.0625843,-94.1574328
"Eisenach, Germany",50.9747134,10.3193565
"Gundelfingen, Alemania",48.0441176,7.8686038
"Roswell, NM",33.3943282,-104.5229518
"Shillong, Meghalaya, India",25.5760446,91.8825282
"New Port Richey, FL 34655, USA",28.2441768,-82.7192671
"Aarhus, Danmark",56.1496278,10.2134046
"Concepcion, Tarlac, Philippines",15.3248528,120.6553857
"Denver, CO, USA",39.7392364,-104.9848623
"Little Rock, AR, United States",34.7464809,-92.2895948
Kosovo,42.5869578,20.9021231
Belgrade,44.8178131,20.4568974
"Surat, Gujarat, India",21.1864607,72.8081281
"Oklahoma City, OK, United States",35.4729886,-97.5170536
"Graz, Austria",47.0708678,15.4382786
Dallas Texas,-23.6475942,-46.5101346
"Hessen, Deutschland",50.6118537,9.1909725
"Maintal, Deutschland",50.143872,8.8371444
"Córdoba, Argentina",-31.4173391,-64.183319
"Viçosa - MG, Brasil",-20.7538586,-42.8815888
"Haiti, Port-au-Prince, Haiti",18.543100799999998,-72.33885844767605
"Las Vegas, نوادا، ایالات متحده آمریکا",36.1672559,-115.1485163
"Osogbo, Nigeria",7.7791666,4.5538891
"Novosibirsk, Новосибирская область, Россия",55.0282171,82.9234509
"Ferizaj, Uroševac District",42.3690931,21.205597
"Thane, Maharashtra, India",19.1943294,72.9701779
Wakanda,4.6427869,35.906449
"Anchal, India",8.9275103,76.9137358
"Fiskebäckskil, Sweden",58.2456466,11.4566294
"Haddon Heights, NJ, USA",39.8773356,-75.0646165
"Hilo, HI",19.7073734,-155.0815803
"Cedar Park, TX, USA",30.5217116,-97.827833
Kottayam,9.6287383,76.64553257124857
"Hilversum, Netherlands",52.2248095,5.1763518
"Dayton, OH",39.7589478,-84.1916069
"Petah Tikva, Israel",32.0877639,34.8859985
"Fort Collins, CO, United States",40.5508527,-105.0668085
"TX, United States",31.8160381,-99.5120986
japan,36.5748441,139.2394179
"Kurunegala, Sri Lanka",7.4870464,80.364908
"Waltham, MA, USA",42.3756401,-71.2358004
Aichi Japan,43.2586458,-79.8712
"Pforzheim, Deutschland",48.8908846,8.7029532
"Kenosha, WI, USA",42.5846773,-87.8212263
philadelphia pa,39.9527237,-75.1635262
"Kirov, Кировская область, Россия",58.6035257,49.6639029
"St. Louis, USA",38.6264178,-90.1998378
"Bartlesville, OK, United States",36.7494864,-95.9782966
"Yokohama, 神奈川県 日本",35.444991,139.636768
"Bargersville, IN, United States",39.5208818,-86.1677657
"Yorkshire, England",54.5801786,-1.1761942
"Sunnyside, Queens, NY, USA",40.7398242,-73.9354153
"Elkhorn, Omaha, NE, United States",41.2860699,-96.2346121
"Freiburg, Alemania",47.9960901,7.8494005
"Ndola,Zambia.",-12.9693056,28.6365894
"Chandigarh, India",30.7194022,76.7646552
"Bengaluru, India",12.9791198,77.5912997
"Richmond, VA, USA",37.5385087,-77.43428
Ancient Rome,49.81954,73.0514492
"Yazd, Iran",32.2452686,55.105172
SE Florida. USA,27.7567667,-81.4639835
"University of Science and Technology of China, Hefei, Anhui, China",31.8413821,117.25745329969698
"Łódź, Polska",51.7687323,19.4569911
"Cleveland, OH",41.5051613,-81.6934446
Ungaria,47.1817585,19.5060937
Moscow,55.7504461,37.6174943
"Hooksett, NH, USA",43.096972,-71.465378
"Jessore, Bangladesh",23.1665652,89.2094742
lost,57.2053788,-3.0793008
"SP, Brasil",-21.9549806,-49.0232348
"Elbląg, Polska",54.1988997,19.44108568736702
"Québec, Canada",52.4760892,-71.8258668
"Bartın, Türkiye",41.4947715,32.4354255
"Tonawanda, NY",43.020679,-78.878383
eat,47.39918335,-120.2056902534639
"Chichawatni, Punjab, Pakistan",30.531691,72.6914049
"Medford, OR, USA",42.3264181,-122.8718605
"Mikkeli, Suomi",61.6877956,27.2726569
"Rio Grande do Sul, Brazil",-29.8425284,-53.7680577
"Tehran, استان تهران، Iran",35.7006177,51.4013785
"Governador Valadares - MG, Brasil",-18.8539497,-41.9458753
"Lokoja, Nigeria",7.802359,6.7430045
"Benin City, Nigeria",6.3330586,5.6221058
"Chantilly, VA, USA",38.8941543,-77.4311513
"Xian, China",34.3468421,108.9365887
"Lynchburg, VA, USA",37.4137536,-79.1422464
"Solihull, United Kingdom",52.4130189,-1.7768935
"Tatuí, SP, Brasil",-23.3514733,-47.8552438
"Narathiwat, ประเทศไทย",6.4277319,101.8212475
Sri Lanka,7.5554942,80.7137847
"São Carlos, SP, Brasil",-22.0183367,-47.890932
"Kochi, Kerala, India",9.931308,76.2674136
HH,53.5437641,10.0099133
"Nagpur, Maharashtra, India",21.1498134,79.0820556
"Houston, TX, USA",29.7589382,-95.3676974
"Sioux Falls, SD",43.5499749,-96.700327
"Huntington Beach, CA, USA",33.6783336,-118.0000166
"Troy, NY, USA",42.7284117,-73.6917878
"Newcastle upon Tyne, UK",54.9738474,-1.6131572
"Churachandpur, Manipur, India",24.378704,93.69700149533944
"Guntur, AP, India",16.2915189,80.4541588
"Cologne, Deutschland",50.938361,6.959974
"Odessa, Ukraine",46.4873195,30.7392776
"Uppsala, Sweden",59.8586126,17.6387436
"San Pablo, CA, United States",37.9621457,-122.3455263
"Nanshan, Shenzhen, Guangdong, China",22.5360142,113.9256222
Bhavnagar,21.7718836,72.1416449
brampton,43.6858146,-79.7599337
"Wendell, NC",35.780987,-78.3697213
Oslo,59.9133301,10.7389701
"Nicosia, Cyprus",35.1739302,33.364726
"Salvador - BA, Brasil",-12.9822499,-38.4812772
"Parramatta, NSW,  Australia",-33.806969699999996,151.02136251722922
Belfast,54.5964411,-5.9302761
"Uberlândia - State of Minas Gerais, Brazil",-18.9188041,-48.2767837
"Trinidad, Trinidad and Tobago",10.443024300000001,-61.26130538878063
"Lafayette, IN, USA",40.4167022,-86.8752869
"Highland Park, NJ, USA",40.4959379,-74.4243178
"Zwolle, Netherlands",52.514565250000004,6.097720359677693
"Kenya, Nairobi",-1.2832533,36.8172449
"Indpur, West Bengal, India",23.1550985,86.88224921945786
moldova,47.2879608,28.5670941
"Caledon, ON, Canada",43.875427,-79.858285
"Warrington, United Kingdom",53.3899497,-2.5943178
"Crete, Greece",35.3084749,24.463320724202934
"Seattle, ワシントン州 アメリカ合衆国",47.6038321,-122.3300624
"Antwerpen, Belgium",51.2211097,4.3997081
"Ulm, Germany",48.3974003,9.9934336
"Giżycko, Polska",54.0400255,21.7715569
"Gresham, OR, USA",45.4997475,-122.4309766
"Madiun, Madiun City, East Java, Indonesia",-7.6290837,111.5168819
"Townsville Queensland, Australia",-19.2569391,146.8239537
"Jinja Municipality, Eastern Region, Uganda",2.2492272499999997,32.88878672508204
"Gilbert, AZ, United States",33.3527632,-111.7890373
"Verona, Province of Verona, Italy",45.4384958,10.9924122
"Terre Haute, IN, United States",39.4667025,-87.4139119
"Honey Lane, Hurley, United Kingdom",51.5338306,-0.8140314
"Hà Nội, Đống Đa, Hà Nội, Việt Nam",20.9932009,105.8616896
san mateo rizal,14.6954505,121.1177632
"Poughkeepsie, NY, USA",41.7065539,-73.9283672
"England, UK",52.7954791,-0.5402402866174321
"Berlín, Alemania",52.5170365,13.3888599
"Washingtonville, NY, United States",41.4278716,-74.1659798
Chennai,13.0801721,80.2838331
"Eugene, OR, United States",44.0505054,-123.0950506
RU,64.6863136,97.7453061
"Barcelona, Catalunya",41.3828939,2.1774322
대한민국 Daejeon,36.3496,127.3848
"Portsmouth, United Kingdom",50.8036831,-1.075614
Lucknow,26.8381,80.9346001
Santo Domingo,18.4801972,-69.942111
"Pakistan Town, Rawalpindi, Pakistan",33.5752204,73.1437563
"Gulu, Uganda",2.8763527,32.41905532894401
"Kharagpur, India",25.133173050000003,86.52504036339789
"Yekaterinburg, Свердловская область, Россия",56.839104,60.60825
"Fresh Meadows, Queens, NY, United States",40.7348246,-73.7934668
"Bern, Switzerland",46.9482713,7.4514512
"Portsmouth, Virginia",36.8678592,-76.37559852679193
"Kohat, Khyber Pakhtunkhwa, Pakistan",33.5967144,71.4399944
Bermuda Triangle,22.1200939,-69.45785416527704
"Durban Central, Durban, South Africa",-29.8574209,31.02222775321959
"Blida, Algérie",36.4701645,2.8287985
"Cupertino, CA, USA",37.3228934,-122.0322895
中国吉林省,42.9995032,125.9816054
"Hoboken, NJ, United States",40.7433066,-74.0323752
Midwest,43.411391,-106.280075
"Zaragoza, Spain",41.6521342,-0.8809428
L'Île-d'Yeu,46.71018105,-2.3491769005046605
"Peekskill, NY, USA",41.289811,-73.9204922
"Agadir, Maroc",30.42203615,-9.55950887633639
"Sector 18, Noida, Uttar Pradesh, India",28.6546936,77.35150775259811
"Strunk, KY, USA",36.6220236,-84.4335486
"Kamothe, Panvel, Navi Mumbai, Maharashtra, India",19.0164338,73.0806552
"Liverpool Grove, London, UK",51.4863666,-0.0919601
"Rio de Janeiro, RJ, Brazil",-22.9110137,-43.2093727
台灣,23.9739374,120.9820179
"Bekasi, West Java, Indonesia",-6.2349858,106.9945444
"Louisville, KY",38.2542376,-85.759407
"New Brunswick, NJ, USA",40.4862174,-74.4518173
"Toronto, Canada",43.6534817,-79.3839347
"New York, NY, United States",40.7127281,-74.0060152
"Bhopal, Madhya Pradesh, India",23.2584857,77.401989
"Montreal, Canada",45.4972159,-73.6103642
"Leeds, United Kingdom",53.7974185,-1.5437941
Texas,31.8160381,-99.5120986
"Manchester, United Kingdom",53.4794892,-2.2451148
Africa,11.5024338,17.7578122
unknown,6.402589949999999,43.398382018489485
"Utah, USA",39.4225192,-111.7143584
"Visakhapatnam, India",17.7231276,83.3012842
"Tangier, Morocco",35.777103,-5.803792
"Lübeck, Germany",53.866444,10.684738
"Palhoça, SC, Brasil",-27.6447774,-48.6646323
"Saratoga Springs, UT, USA",40.3491173,-111.9046567
"St Petersburg, Россия",59.9606739,30.1586551
"Tshwane, South Africa",-25.7459374,28.1879444
"Kazán, Россия",55.7823547,49.1242266
"Odisha, ओड़िशा, भारत",20.9206382,85.2222895
Jeddah,21.5810088,39.1653612
colombia,2.8894434,-73.783892
"McKinney, TX, USA",33.1976496,-96.6154471
"Holt, Delhi charter Township, MI, USA",42.6414805,-84.5201719
"Princeton, NJ",40.3492744,-74.6592958
"Natal, Brazil",-5.805398,-35.2080905
"Kansas City, MO",39.100105,-94.5781416
"Sawangan Baru, Depok City, West Java, Indonesia",-6.4049247,106.7735858
"Taizhou, Zhejiang, China",28.6581723,121.4163876
Cardiff,51.4816546,-3.1791934
"Mariveles, Bataan, Central Luzon, Philippines",14.4356104,120.4903545
"Hendersonville, NC",35.3187279,-82.4609528
"Kermanshah, Kermanshah Province, Iran",34.3239414,47.0735891
"Southall, UK",51.5111461,-0.3755169
"Gelsenkirchen, Deutschland",51.5110321,7.0960124
"Phrae, Thailand",18.2930601,100.0886757
"Culver City, CA, USA",34.0211224,-118.3964665
"Newcastle upon Tyne, Vereinigtes Königreich",54.9738474,-1.6131572
"Wrocław, Poland",51.1089776,17.0326689
"Brasília, DF, Brasil",-15.7934036,-47.8823172
"Vaughan, ON, Canada",43.7941544,-79.5268023
"Birmingham, UK",52.4796992,-1.9026911
"Davangere, Karnataka, India",14.466445700000001,75.9197507909343
"Leeds, UK",53.7974185,-1.5437941
"Cincinnati, OH",39.1014537,-84.5124602
"Nanjing, 江苏省中国",32.0609736,118.7916458
"Stein, Nederland",50.9694381,5.7669713
"Omsk, Omsk Oblast, Russia",54.991375,73.371529
"Rochester, NY, United States",43.157285,-77.615214
Timor Leste,-8.5151979,125.8375756
"Recife - PE, Brasil",-8.0584933,-34.8848193
"Chapecó, SC, Brasil",-27.0922364,-52.6166878
"Limeira - SP, Brasil",-22.5615068,-47.401766
"Minsk, Беларусь",53.902334,27.5618791
"Ratnagiri, Maharashtra, India",17.282607900000002,73.4569787039826
"Tacoma, WA, United States",47.2495798,-122.4398746
"District of Columbia, United States",38.893661249999994,-76.98788325388196
Arrakis,43.3518038,-2.5272504
"Castanheira do Ribatejo, Portugal",38.9890131,-8.96530345836284
"Zhuhai, 广东省中国",22.2305196,113.5462439
Pune India,18.521428,73.8544541
"Kahawa Sukari, Kiambu County, Kenya",-1.1888753,36.9314768
"Maceió - State of Alagoas, Brazil",-9.6476843,-35.7339264
"47 Cayuga Road, Bordentown, NJ, USA",40.12624638581485,-74.73155541700103
qingdao,36.0638034,120.3781372
"Athens, GA, United States",33.9597677,-83.376398
Northern Kentucky,37.5078766,-82.8154387
"Diễn Châu, Nghệ An, Việt Nam",19.021568000000002,105.57809018508287
"Perth, Australia Occidentale, Australia",-31.9527121,115.8604796
"Converse, TX, United States",29.5180081,-98.3161241
"Glebe NSW 2037, Australia",-33.8777782,151.1862377
"Kurdistan, Erbil, Iraq",36.6422041,44.5064886
"Detroit Metropolitan Area, MI, USA",42.3696008,-83.15050668453688
"Troy, MI",42.6055893,-83.1499304
"San Francisco Bay Area, Калифорния, США",37.7884969,-122.3558473
Taiwan,23.59829785,120.83536313817521
"Coimbatore, Tamil Nadu, India",11.0018115,76.9628425
"Mauá, State of São Paulo, Brazil",-23.6669527,-46.4616922
"Pasuruan, Pasuruan City, East Java, Indonesia",-7.6419894,112.906694
"Pune, India",18.521428,73.8544541
"Dnipro, Dnipropetrovsk Oblast, Ukraine",48.4680221,35.0417711
"Taguig, Metro Manila, Philippines",14.5266254,121.074403
Shimla,31.1041526,77.1709729
"Connecticut, United States",41.6500201,-72.7342163
"Ajdovscina, Slovenia",45.8885557,13.9048561
"Clermont, FL",28.5494447,-81.7728543
hongkong,22.2793278,114.1628131
"Las Vegas, NV",36.1672559,-115.1485163
india,22.3511148,78.6677428
"Regina, SK, Canada",50.44876,-104.61731
Chinese,-8.4305889,115.23368569206687
"Durham, NC, United States",35.996653,-78.9018053
visakhapatnam,17.7231276,83.3012842
"João Pessoa, PB, Brasil",-7.1215981,-34.882028
"Cebu City, Cebu, Philippines",10.3095549,123.8931107
"Pretoria, South Africa",-25.7459374,28.1879444
"San Luis Potosi, Mexico",22.5000001,-100.5000001
"Vriezenveen, Nederland",52.4375949,6.65095282277748
Voorhees,39.8512162,-74.9619779
"Watford, United Kingdom",51.6553875,-0.3957425
"Bareilly, Uttar Pradesh, India",28.457876,79.40557093743058
"Krefeld, Germany",51.3331205,6.5623343
"Piscataway, NJ",40.5462553,-74.4660408
"Tulsa, OK, USA",36.1556805,-95.9929113
Indianapolis,39.7683331,-86.1583502
Marseille,43.2961743,5.3699525
"Torreon, Mexico",25.542698,-103.4105122
"Akron, OH",41.083064,-81.518485
taiwan taoyuan,24.9929995,121.3010003
"Queen Creek, AZ, USA",33.2483858,-111.6341585
"Omsk, Omsk Oblast, i-Russia",54.991375,73.371529
"Bizerte, Tunisia",37.2720905,9.8708565
"Gold Coast, Queensland, Australia",-28.0023731,153.4145987
"Veracruz, Mexico",19.333333,-96.666667
"Benoni, South Africa",-26.1930356,28.3082376
"Aguascalientes, México",22.0000001,-102.5000001
"NYC, NY, USA",40.7127281,-74.0060152
Trondheim,63.4305658,10.3951929
"Lafayette, CO, United States",40.0024435,-105.10957997730037
"Le Havre, France",49.4938975,0.1079732
"New Delhi, India",28.6138954,77.2090057
"Waterloo, ON, Canada",43.466874,-80.524635
"Tarnów, Polska",50.025988299999995,20.96405842696229
"Hanoi, Việt Nam",21.0294498,105.8544441
"Oxford, United Kingdom",51.7520131,-1.2578499
"Derby, United Kingdom",52.9212617,-1.4761491
"Kyiv, Kyiv city, Ukraine",50.4296064,30.5422094
"Caen, France",49.1828008,-0.3690815
"Chittagong Division, Bangladesh",22.3307998,91.8412863
"Bangi, Selangor, Malaysia",2.90398245,101.78602883608005
"Bushnell, FL, USA",28.6644827,-82.1117399
"Sacramento, CA",38.5815719,-121.4943996
"Soledad - Atlantico, Colombia",10.905451549999999,-74.77405314080215
"Cienfuegos, Cuba",22.1457501,-80.4526242
"Rio Verde, GO, Brasil",-17.7921255,-50.9191219
"seoul, south korea",37.5666791,126.9782914
"49 Vaughan Drive, Newark, NJ, USA",40.738832073170734,-74.1842657804878
"Kalaburagi, Karnataka, India",17.166667,77.083333
"Cascavel - PR, Brasil",-24.9554996,-53.4560544
"130 Lee Joyal Road Duncan, SC 29334",34.954687199999995,-82.16653693339538
Where you live,34.9489431,-81.9333663
Kazahstan,47.2286086,65.2093197
"Calella, Espanya",41.6132925,2.6576102
"Santo Antônio de Pádua - RJ, Brasil",-21.5389992,-42.1799978
"Alabama, United States",33.2588817,-86.8295337
"Seoul, Republic of Korea",37.5666791,126.9782914
"Chamoli, Uttarakhand, India",30.499632300000002,79.61879245944404
"Sochi, Краснодарский край, Россия",43.5854823,39.723109
Ratnagiri,17.282607900000002,73.4569787039826
"Mumbai, Maharashtra, India",18.9387711,72.8353355
"Nice, France",43.7009358,7.2683912
Algeria,28.0000272,2.9999825
"Pomona, CA, USA",34.0553813,-117.7517496
"Prayagraj, Uttar Pradesh, India",25.4381302,81.8338005
Dublin,53.3497645,-6.2602732
US Midwest,43.411391,-106.280075
"Columbia, MO, United States",38.951883,-92.3337366
"Holland, MI, USA",42.7876022,-86.1090828
"New York, IA, USA",40.8516701,-93.2599318
"Plymouth Meeting, PA, USA",40.1105915,-75.28448701221585
"Hertfordshire, UK",51.840052299999996,-0.09785519224523963
"Charleston, SC",32.7876012,-79.9402728
"Illinois, 美國",40.0796606,-89.4337288
"Accra, Greater Accra, Ghana",5.5600141,-0.2057437
"Shang-hai, 上海市中国",31.2252985,121.4890497
"New Jersey, États-Unis",40.0757384,-74.4041622
"Islamabad District, Islamabad Capital Territory, Pakistan",33.6938118,73.0651511
"Gweru, Zimbabwe",-19.4616316,29.8205953
"Imphal, Manipur, India",24.8006088,93.9369998
"Eldoret, Uasin Gishu County, Kenya",0.5198329,35.2715481
"Pietermaritzburg, KwaZulu-Natal, South Africa",-29.6,30.3788889
"Prato, PO, Italia",43.880598,11.0969262
"Halmstad, Sweden",56.6739826,12.8574827
"Gorgan, Golestan Province, Iran",36.8392776,54.4320858
"Soro-Soro Ilaya, Batangas, Philippines",13.8035556,121.0761262
"Gilching, Deutschland",48.1140289,11.2921549
"Nazareth, PA, United States",40.7423309,-75.3112095
"Worcester, UK",52.1911849,-2.2206585
new jersey,40.0757384,-74.4041622
"Townsville City, Queensland, Australia",-19.2622223,146.8158417
tunisia,33.8439408,9.400138
"Nzerekore, Nzérékoré, Guinea",7.7574322,-8.8174807
"Wiltshire, United Kingdom",51.324162,-1.9032486699002247
"Atlanta, GA",33.7490987,-84.3901849
"Abuja, Nigeria",9.0643305,7.4892974
Macedonia (FYROM),41.6171214,21.7168387
/nz/auckland,-36.852095,174.7631803
"Malappuram, Kerala, India",11.10684475,76.10995510466662
"Alexandria Governorate, Egypt",30.943298300000002,29.765645040071266
"Минск, Беларусь",53.902334,27.5618791
"Temuco, Chile",-38.7362611,-72.590546
"Khulna City, Khulna, Khulna Division, Bangladesh",22.8171664,89.563759
"Kent, WA, USA",47.3826903,-122.2270272
"Canada's Wonderland Drive, Vaughan, ON, Canada",43.8384591,-79.5353054
"Roorkee, Uttarakhand, India",29.8693496,77.8902124
"Maringa, Brazil",-23.425269,-51.9382078
"Charlottesville, VA",38.029306,-78.4766781
"Prague, CZ",50.0874654,14.4212535
"Новокузнецк, Кемеровская область, Россия",53.757607,87.136101
"Dortmund, Deutschland",51.5142273,7.4652789
"Tempe, AZ, United States",33.4255056,-111.9400125
Colombo,6.9349969,79.8538463
Rio das Pedras,-22.8441256,-47.6065667
"San Bruno, CA, USA",37.6304904,-122.4110835
Victoria,-36.5986096,144.6780052
"Encinitas, CA, United States",33.0369867,-117.2919818
"Denver, Co",39.7392364,-104.9848623
"Goiania, Brazil",-16.680882,-49.2532691
"Kansas, USA",38.27312,-98.5821872
Western Australia,-25.2303005,121.0187246
Wollongong,-34.4243941,150.89385
Navi Mumbai,19.0308262,73.0198537
"TamilNadu,India",10.9094334,78.3665347
"Tradate, VA, Italia",45.7142931,8.9041464
"The Hague, Nederland",52.07494555,4.2696802205364515
"4937 Benecia Ln, Montclair, Virginia 22025, USA",38.60926538600776,-77.35575819115068
"Castilho, SP, Brasil",-20.8695636,-51.4877792
"Irkutsk, Russia",52.289597,104.280586
"Redondo Beach, CA",33.8455911,-118.3886766
"Hamilton, Canada",43.2560802,-79.8728583
中国辽宁省大连市,38.9181714,121.6282945
Sydney 新南威尔士州澳大利亚,-33.8548157,151.2164539
"Sharjah, United Arab Emirates",25.3461498,55.4210633
"Freiburg im Breisgau, Germany",47.9960901,7.8494005
"Nashville, TN, USA",36.1622296,-86.7743531
"San Bruno, CA",37.6304904,-122.4110835
"Redmond, WA, United States",47.6694141,-122.1238767
"Rexburg, ID",43.8235163,-111.7870222
"Madurai, Tamil Nadu, India",9.9261153,78.1140983
VA,13.2904027,108.4265113
San Diego,32.7174209,-117.1627714
"Port Charlotte, FL, United States",26.982419999999998,-82.10688734598534
Slovakia,48.7411522,19.4528646
Berlin,52.5170365,13.3888599
"Benevento, BN, Italia",41.1295587,14.7824639
"New Tehri, Uttarakhand, India",30.37445,78.43277
"Gliwice, Polska",50.30113145,18.662347227971978
"Enfield, CT, United States",41.9789387,-72.5755109
"Chiclayo, Perú",-6.766417,-79.8408308
"Bronx, NY, USA",40.8466508,-73.8785937
"Jakarta, Special Capital Region of Jakarta, Indonesia",-6.1875613,106.8277658
CZ,49.8167003,15.4749544
"Worcestershire, United Kingdom",52.2109495,-2.156955513242221
"Colombia, Medellin, Antioquia, Colombia",6.227259,-75.5719699
"Fruit Heights, UT",41.0321662,-111.9021622
"Iritty, Kerala, India",11.9764086,75.72315492216805
San Francisco,37.7790262,-122.4199061
"Clarens, Suisse",46.4411119,6.8930605
"Cacoal, Rondônia - Brazil",-11.4333,-61.4420502
"Tirupati, Andhra Pradesh, India",13.6316368,79.4231711
"Villarrubia de los Ojos, España",39.2181465,-3.6070212
"Hamamatsu, Shizuoka Prefecture, Japan",34.7109786,137.7259431
"Târgu Mureș, Romania",46.5446244,24.5611947
Petaling Jaya Selangor Malaysia,3.13964625,101.58963737989805
Nashville,36.1622296,-86.7743531
"Conway, AR, United States",35.2521996,-92.6888936
"King George, VA, United States",38.2786312,-77.175356
"Anand, India",22.5584995,72.9625629
"Hubei, 中国",31.15172525,112.87832224656043
"TN, India",10.9094334,78.3665347
"Fujian, 中国",26.5450001,117.842778
"Oakton, VA, United States",38.896729,-77.29866437219505
"Германия, Мюнхен",48.1371079,11.5753822
"Mansfield, MA, USA",42.0334326,-71.2189405
Dogura,-9.455079,147.2100524
"Tokyo, Japon",35.6828387,139.7594549
"Seoul,  South Korea",37.5666791,126.9782914
"Bekaa-West, Lebanon",33.42,35.85
"Prishtina, Pristina District",42.6617008,21.1583695
"Kuwait City, Kuwait",29.3797091,47.9735629
"Monterrey, Mexico",25.6802019,-100.3152586
"Sichuan, China",30.5000001,102.4999999
"Udaipur, Rajasthan, India",24.578721,73.6862571
"Rolweg 27, Brugge, België",51.213745200000005,3.2330912601717134
"Kharkiv, Ukraine",49.9902794,36.2303893
Mars,45.022172,4.3221548
"Rhein-Main-Gebiet, Deutschland",48.3085018,7.7167686
"Ivano-Frankovsk, Ивано-Франковская область, Украина",48.9225224,24.7103188
"Niš, Serbia",43.321504,21.8957301
U.K.,54.7023545,-3.2765753
"Chinatown, Los Angeles, CA, United States",34.0638402,-118.2358676
"Middle of Nowhere, United Kingdom",50.6099127,-1.3500438
"Giridih, Jharkhand, India",24.25,85.916667
"Guntur, India",16.2915189,80.4541588
"Feira de Santana - BA, Brasil",-12.2578934,-38.9598047
"Westborough, MA",42.2694308,-71.6129907
"American Fork, UT, USA",40.3768954,-111.7957645
Chengdu,30.6624205,104.0633219
"Thessaloniki, Ελλάδα",40.6403167,22.9352716
"Революционная улица, Уфа, Россия",54.7313359,55.9926322
"Eskilstuna, Sweden",59.3717379,16.5051474
"Kernersville, NC, United States",36.1198589,-80.0736533
"Lod, Israel",31.9489012,34.8884857
"Texas, AL 61604, United States",33.929827,-87.6786301
"Arnhem, The Netherlands",52.0056642,5.8762345077641305
daejeon,36.3496,127.3848
"Kings Langley, UK",51.7135573,-0.4503027
Scunthorpe,53.5922488,-0.6450841
"Forest Hills, Queens, NY, United States",40.7195942,-73.8448553
"Beijing, 北京市中国",39.906217,116.3912757
"Philadelphia, PA, United States",39.9527237,-75.1635262
Argentina,-34.9964963,-64.9672817
"Recife - State of Pernambuco, Brazil",-8.0584933,-34.8848193
Dhaka Bangladesh,23.810651,90.4126466
"Trabzon, Türkiye",41.0058605,39.7180928
"Orange County, CA, United States",33.7500378,-117.8704931
"Marrakech, Maroc",31.6258257,-7.9891608
"Austin TX, USA",30.2711286,-97.7436995
"Hattiesburg, MS",31.3271189,-89.2903392
"Bielefeld, Deutschland",52.0191005,8.531007
"Recife, State of Pernambuco, Brazil",-8.0584933,-34.8848193
Jalandhar,31.29201065,75.56805772253911
Norwich,52.628606,1.29227
"Kumasi, Ashanti Region, Ghana",6.698081,-1.6230404
"Adelaide, South Australia, Australia",-34.92030445,138.59704811407516
"Denpasar City, Bali, Indonesia",-8.6524973,115.2191175
"Solapur, Maharashtra, India",17.84990665,75.27632027348457
"Rostock, Deutschland",54.0924445,12.1286127
Srilanka,7.5554942,80.7137847
"Ijebu Ode, Nigeria",6.8140077,3.9151668
"وجدة, Morocco",34.677874,-1.929306
Ubud,-8.5080922,115.2639576
"Paonta Sahib, India",30.48904715,77.5819610357789
"Bardoli, Gujarat, India",21.1220023,73.1135988
"Machačkala, Россия",42.9830241,47.5048717
"Cebu City, Philippines",10.3095549,123.8931107
"Warangal, India",17.9806094,79.5982115
"Kaduna, Nigeria",10.3825318,7.8533226
"Mumbai Central, Mumbai, Maharashtra, India",18.9695855,72.8193152
"CDMX, México",19.4326296,-99.1331785
"Nanchang, 江西省中国",28.6792695,115.8885987
"Wernigerode, Deutschland",51.8344172,10.7862526
"League City, Texas 77573, USA",29.5074538,-95.0949303
"Łomża, Polska",53.18243065,22.052183817808846
Bilbao,43.2630051,-2.9349915
"Corvallis, OR",44.5645659,-123.2620435
Bamako,12.60503275,-7.986513673439357
"Chechnya, ロシア",43.3976147,45.6985005
澳大利亚昆士兰州黄金海岸,-28.0023731,153.4145987
Belgium,50.6402809,4.6667145
"Lisboa, Portugal",38.7077507,-9.1365919
boston,42.3602534,-71.0582912
Pennsylvania,40.9699889,-77.7278831
"Zhengzhou, Henan, China",34.7591877,113.6524076
"Columbus, MS, United States",33.4956744,-88.4272627
"Vellinge, Sverige",55.322806,12.804885014640556
"Angamaly, Kerala, India",10.1910284,76.3874109
"La Porte, TX, USA",29.6657838,-95.0193729
"Guelmim, Morocco",28.9863852,-10.0574351
"Wanaka, New Zealand",-44.6941691,169.1364637
Angola,-11.8775768,17.5691241
"Upstate NY, USA",40.7263224,-73.9864498
"Cookeville, TN",36.1623886,-85.4997057
"Kumbakonam, Tamil Nadu, India",10.9645549,79.37173036154906
澳大利亚昆士兰州布里斯班,-27.4689682,153.0234991
"Loja, Ecuador",-4.0528506,-79.8053425
"Glasgow, Scotland, UK",55.8609825,-4.2488787
"AP, India",15.9240905,80.1863809
"San Rafael, Mendoza, Argentina",-34.6126025,-68.330514
"Shimla, Himachal Pradesh, India",31.1041526,77.1709729
"Mérida, Venezuela",8.5875788,-71.1572352
"Grande Concepción, Chile",-36.9834423,-73.0011388
"Lenexa, KS, USA",38.9697458,-94.7845837
"Spokane, WA, USA",47.6579425,-117.4212265
Hogwarts,-1.24139975,36.784112734047056
"Kingston upon Thames, United Kingdom",51.4096275,-0.3062621
"Bicholim, Goa, India",15.5553688,73.97707290781565
"Cuiabá - Mato Grosso, Brasil",-15.5986686,-56.0991301
"Santiago de Chile, Chile",-33.4377968,-70.6504451
"Київ, Україна",50.4500336,30.5241361
"Kigali, Kigali City, Rwanda",-1.950851,30.061507
"Kansas City, Kansas, USA",39.1134562,-94.626497
"Mễ Trì Hạ, Từ Liêm, Hà Nội, Việt Nam",21.0136866,105.784379
"Milanówek, Polska",52.1266493,20.6641191
"Navi Mumbai, India",19.0308262,73.0198537
"St Louis Park, MN, USA",44.9475726,-93.3569023
"Helsingborg, Sverige",56.0441984,12.7040684
"King George, VA",38.2786312,-77.175356
"Greensboro, NC",36.0726355,-79.7919754
"Bengkalis, Riau, Indonesia",1.76972265,101.91243842805495
chan,47.4445312,22.5205999
"Glasgow, Scotland",55.8609825,-4.2488787
"Seattle, WA",47.6038321,-122.3300624
"Eslamshahr, Tehran Province, Iran",35.5544811,51.2156226
korea,36.638392,127.6961188
"Canberra ACT, Australia",-35.2975906,149.1012676
"Lisbon, Portugal",38.7077507,-9.1365919
"Cartagena, Bolívar, Colombia",10.4195841,-75.5271224
"Chengdu, Sichuan, China",30.6624205,104.0633219
"Lubbock, TX, Estados Unidos",33.5635206,-101.879336
guwahati,26.1805978,91.753943
"Bogor, Bogor City, West Java, Indonesia",-6.5943109,106.79084611007264
"Târgu Lăpuș, Maramureș County, Romania",47.4535458,23.8646852
"Brăila, Brăila County, Romania",45.2716092,27.9742932
"Helsinki, Suomi",60.1674098,24.9425769
"Bali, Indonesia",-8.3304977,115.0906401
"Asden Court, Reynoldsburg, OH, United States",39.978227,-82.799073
"Waxhaw, NC, United States",34.9248125,-80.7440174
"Barcelona, Spanien",41.3828939,2.1774322
"Lausanne, Suisse",46.5218269,6.6327025
"Los Angeles, California, USA",34.0536909,-118.2427666
"Syosset, NY, USA",40.8223967,-73.49396099495108
"Provo, UT, United States",40.2338438,-111.6585337
"Benin City, Edo, Nigeria",6.3330586,5.6221058
"Gig Harbor, WA, USA",47.3259697,-122.5878659
"Palatine, IL, USA",42.1105779,-88.0336888
Calicut,11.2446144,75.7759372
"Nivelles, Belgium",50.5976885,4.3235854
"Union City, CA, USA",37.5963232,-122.0816297
Zagreb,45.813177,15.977048
"Mumbai, India",18.9387711,72.8353355
"Verona, VR, Italy",45.4384958,10.9924122
Connecticut,41.6500201,-72.7342163
"San Jose, CA, United States",37.3361905,-121.8905833
"Saint Petersburg, Россия",59.9606739,30.1586551
"69 Canal Street, Westerly, RI, United States",41.38582626633242,-71.83234666546304
"Prague, Česko",50.0874654,14.4212535
"Coron, Palawan, Philippines",11.9986058,120.2051745
"Montabaur, Deutschland",50.4362219,7.8302494
texas,31.8160381,-99.5120986
"Bloomington, IN",39.1670396,-86.5342881
"El Segundo, CA, USA",33.917028,-118.4156337
São Leopoldo,-29.7544405,-51.1516497
tehran,35.7006177,51.4013785
"Canton, GA, United States",34.2367621,-84.4907621
"Dalian, Liaoning, China",38.9181714,121.6282945
"Krakow, Poland",50.0619474,19.9368564
"Ohio, USA",40.2253569,-82.6881395
"Chur, Schweiz",46.855515,9.5254066
"Belleville, Canada",44.1633264,-77.3852556
"Tel Aviv-Jaffa, Israel",32.0804808,34.7805274
"Hanyang University, Seoul, South Korea",37.5557271,127.0436642
"Baku, Azerbaijan",40.3754434,49.8326748
Bomet,-0.7196054000000001,35.23963801252495
Murcia,37.9923795,-1.1305431
"New Hampshire, United States",43.4849133,-71.6553992
"Oviedo, Spain",43.3533424,-5.879514339526834
"Trondheim, Norway",63.4305658,10.3951929
"Cary, North Carolina, USA",35.7883046,-78.7811964
Karachi,25.1446897,67.1847767315734
"Hull, UK",53.7435722,-0.3394758
"Palakkad, Kerala, India",10.7691989,76.6512469
"WA, USA",47.2868352,-120.2126139
"Kazan', Russia",55.7823547,49.1242266
South Korea Seoul,37.5666791,126.9782914
"Richmond, CA",49.163168,-123.137414
"Annaba, Wilaya d'Annaba, Algeria",36.8982165,7.7549272
"Chidambaram, Tamil Nadu, India",11.41018075,79.67222017841891
Portland,45.5202471,-122.6741949
"Tuapse, Russia",44.0984747,39.0718875
West Bank,31.94696655,35.27386547291496
My house,1.1228470499999998,104.05631386819422
"Richmond Hill, ON, Canada",43.880078,-79.439392
"Staten Island, NY, United States",40.5834557,-74.1496048
"Chantilly, VA, United States",38.8941543,-77.4311513
"Adigrat, Ethiopia",14.2775432,39.4612757
"M.G.Road,Bangalore,Karnataka,India",12.9730154,77.6166123
"Cassino, FR, Italia",41.4925576,13.8305297
"Ottensheim, Österreich",48.3318812,14.1757273
"Burgas, България",42.446600000000004,27.20620689265119
Ecuador,-1.3397668,-79.3666965
f,57.535426,14.641181601671247
Qatar,25.3336984,51.2295295
"Cherry Hill, NJ",39.9348351,-75.0307264
"Provo, UT",40.2338438,-111.6585337
Mangalore,12.8698101,74.8430082
"Hatfield, UK",51.7634675,-0.2258741
Rotterdam,51.9228958,4.4631727
日本、東京都,35.6828387,139.7594549
"Anchorage, AK",61.2163129,-149.8948523
"Grand Junction, CO",39.063956,-108.5507317
"Utah County, UT, USA",40.0841662,-111.6259473
"Lancashire, UK",53.8611703,-2.5650887919475496
"seoul, korea",37.5666791,126.9782914
Москва,55.7504461,37.6174943
"College Station, TX, USA",30.5955289,-96.3071042
"Raipur, Chhattisgarh, India",21.2379469,81.6336833
"Scarborough ON, Canada",43.773077,-79.257774
"Southampton, UK",50.9025349,-1.404189
"Mississippi, United States",32.9715645,-89.7348497
"Orlando, FL, USA",28.5421109,-81.3790304
"Ypsilanti, MI, USA",42.24253,-83.6171426940706
fatehpur,25.8435395,80.91800397088501
bhopal,23.2584857,77.401989
"Syracuse, SR, Italia",37.0646139,15.2907196
"Tetovo, North Macedonia",42.0068297,20.9728556
无锡,31.4933074,120.3074357
"Vancouver, BC",49.2608724,-123.1139529
"Addison, TX, United States",32.9604305,-96.83025951893629
"Kearney, NE, USA",40.4906216,-98.9472344
"Bharatpur, Rajasthan, India",27.26521245,77.36912554739122
"Bragança Paulista - SP, Brasil",-22.9520235,-46.5418586
Kolhapur,16.7028412,74.2405329
"Dansoman, Accra, Ghana",5.5468112,-0.2656595
"Jhalawar, India",24.3132368,76.52223626123003
"Mahwah, NJ, USA",41.0887072,-74.1437552
"Manipal, Karnataka, India",13.3519723,74.7870308
"Antalya, Türkiye",36.9009641,30.6954846
"Santa Ana, CA, USA",33.7494951,-117.8732213
"Santo Domingo, Distrito Nacional, República Dominicana",18.4801972,-69.942111
"Kaohsiung, Taiwan",22.6203348,120.3120375
"Bergen op Zoom, Netherlands",51.4965864,4.289740797263708
"Jumet, Charleroi, Belgique",50.44466065,4.436023274985362
Krasn,52.430126,38.300678
"Dubai, United Arab Emirates",25.0750095,55.18876088183319
"Deyme, France",43.4810186,1.5257421
"Oregon, USA",43.9792797,-120.737257
"Columbia, MD, USA",39.2156213,-76.8582049
"Baroda, Gujarat, India",22.166066,72.947426
"Malabon, NCR, Philippines",14.675233,120.9573542
"Ann Arbor, MI, United States",42.2681569,-83.7312291
"Greenville, SC, USA",34.851354,-82.3984882
"Leiden, Netherlands",52.1518157,4.4811088666204295
"Tallinn, Tallinna linn, Estonia",59.4368412,24.744926
"Tegucigalpa, Honduras",14.1056861,-87.204676
"Knoxville, TN, United States",35.9603948,-83.9210261
"Jaffna, Northern Province, Sri Lanka",9.66542575,80.02123819268678
"Ohio, 美国",40.2253569,-82.6881395
"Chicago, IL 60622, United States",41.8755616,-87.6244212
"Tabriz,Iran",38.0739964,46.2961952
B,-36.3789925,-60.3855889
"Padua, Italy",45.4077172,11.8734455
"Dhaka,Bangladesh",23.810651,90.4126466
"Rockville, MD",39.0840054,-77.1527573
"Oviedo, FL, USA",28.659392500000003,-81.20469046496677
"Yorktown, VA",37.2378875,-76.5080633
"Boca Raton, FL, United States",26.3586885,-80.0830984
"Saidpur, Rangpur Division, Bangladesh",25.7839804,88.8940577
uk,54.7023545,-3.2765753
"Indiana, United States",40.3270127,-86.1746933
iowa,41.9216734,-93.3122705
Afganistán,33.7680065,66.2385139
"Λονδίνο, Ηνωμένο Βασίλειο",51.5073219,-0.1276474
"Las Vegas, Nevada, États-Unis",36.1672559,-115.1485163
"Venice, CA",54.698056,-112.147222
M.tai,13.9109595,100.602356
"Nha Trang, Khanh Hoa Province, Vietnam",12.2431693,109.1898675
Florence,43.7698712,11.2555757
"Hsinchu City, Taiwan Province, Taiwan",24.8066333,120.9686833
mashhad,36.2974945,59.6059232
Lesotho,-29.6039267,28.3350193
"Lins - SP, Brazil",-21.6741873,-49.7518932
London,51.5073219,-0.1276474
"Rochester Hills, MI, USA",42.6583661,-83.1499322
Lagos,6.4550575,3.3941795
"Méxco, D.F.",34.0355942,-5.0044848
"Purley Oaks Road, South Croydon, UK",51.34386,-0.0924149
"Culiacán Rosales, Sin., México",24.7978965,-107.393395
"Quezon City, Metro Manila, Philippines",14.6509905,121.0486155
"Mankato, MN, USA",44.1634663,-93.9993505
"Catalunya, Espanya",41.8523094,1.5745043
"Sighișoara, Romania",46.2201975,24.7934573
"Aguascalientes, Ags., México",21.8806553,-102.2961323
"Lauderhill, FL, United States",26.1567308,-80.22506769232564
"León, México",21.1218598,-101.6825081
"Bora-Bora, French Polynesia",-16.50440635,-151.73666961103527
"Burgas, Bulgaria",42.446600000000004,27.20620689265119
"Southern California, CA, USA",34.0218833,-118.28586726915088
WuHan,30.5951051,114.2999353
"Plymouth, UK",50.3712659,-4.1425658
"Tulsa, OK, United States",36.1556805,-95.9929113
"Hannover, Germany",52.3744779,9.7385532
"Princeton, NJ, United States",40.3492744,-74.6592958
Bamberg,49.8916044,10.8868478
대한민국 대전광역시,36.3496,127.3848
"Wuxi, 江苏省中国",31.4933074,120.3074357
"Vermont, USA",44.5990718,-72.5002608
"Alwar , Rajasthan",27.639077049999997,76.6144524902045
Mumbai,18.9387711,72.8353355
HK,22.350627,114.1849161
chine,35.000074,104.999927
"Goiânia, GO, Brasil",-16.680882,-49.2532691
"Guangzhou,Guangdong,China",23.1301964,113.2592945
"Indianapolis, IN, United States",39.7683331,-86.1583502
"Phoenix, AZ, USA",33.4484367,-112.0741417
"Ružomberok, Slovensko",49.0815718,19.3034168
"Florida, United States",27.7567667,-81.4639835
"Niterói - RJ, Brasil",-22.8832371,-43.1154552
"Buffalo, NY, USA",42.8867166,-78.8783922
"Tulsa, OK",36.1556805,-95.9929113
"veracruz, mexico.",19.333333,-96.666667
"San Leandro, CA, United States",37.7249296,-122.1560768
"Rennes, France",48.1113387,-1.6800198
"Cornwall, United Kingdom",50.416667,-4.75
Al Barsha 1 - Dubai - United Arab Emirates,25.111504150000002,55.19718727525046
"Harare, Harare Province, Zimbabwe",-17.831773,31.045686
hk,22.350627,114.1849161
Vermont,44.5990718,-72.5002608
"Fairfield, IA, USA",41.0087364,-91.9626486
Suisse,46.7985624,8.2319736
"Turin, Italy",45.0677551,7.6824892
"Nairobi County, Kenya",-1.2832533,36.8172449
surat,45.9383,3.2553
"Kirkland, WA, USA",47.6859573,-122.1920249
24 Solutions,39.4324435,-83.83289
"Dnipropetrovs'k, Dnepropetrovsk, Dnipropetrovsk Oblast, Ukraine",48.4680221,35.0417711
Dandong China,40.128668,124.3863404
"Highland Lakes, NJ",41.1732669,-74.45902935626548
"Hamirpur, India",25.75,80.0
"London, Regno Unito",51.5073219,-0.1276474
"Querétaro, Qro., México",20.5954708,-100.3970593
"Funchal, Portugal",32.6496497,-16.9086783
"West New York, NJ, USA",40.7856117,-74.0093129
"Konya, Türkiye",37.8719963,32.4844015
"Ossendrecht, Nederland",51.3934241,4.336787034814844
"Rio Grande do Sul, Brasil",-29.8425284,-53.7680577
"Brescia, BS, Italia",45.5398022,10.2200214
"Ruislip, United Kingdom",51.5714026,-0.4213375
türkiye istanbul,41.0096334,28.9651646
"Kadi, India",23.2969449,72.3306381
"Porto Velho, Brazil",-8.7494525,-63.8735438
"Moscow, Russia",55.7504461,37.6174943
België,50.6402809,4.6667145
"Karachi, Sindh, Pakistan",25.1446897,67.1847767315734
Minsk,53.902334,27.5618791
"Mandaluyong, Metro Manila, Philippines",14.5777807,121.0332295
"Manchester, NH, USA",42.9956397,-71.4547891
Albania,41.000028,19.9999619
"Mishawaka, IN, USA",41.6619927,-86.1586156
Madagascar,-18.9249604,46.4416422
"Grand Rapids, MI, United States",42.9632405,-85.6678639
"Allahabad, Uttar Pradesh, India",25.4381302,81.8338005
"Gazipur, Bangladesh",23.9980797,90.4229848
"Cormano, MI, Italia",45.5440378,9.1707469
"Mexico City, CDMX, México",19.2667215,-99.1269583
"Kalundborg, Danmark",55.6833793,11.0993619
"World Way, Los Angeles, CA, United States",33.944965,-118.4047397
"Mayagüez, Puerto Rico",18.2011161,-67.1391124
"Coventry, UK",52.4081812,-1.510477
"Galle, Southern Province, Sri Lanka",6.0328139,80.214955
"Nara Prefecture, 日本",34.2963089,135.8816819
"Middelburg, Nederland",51.50529485,3.6100710049422853
"Niagara Falls, ON, Canada",43.100983,-79.115295
"Perak, Malaysia",4.7916539,100.9276057
"جرجا سوهاج, مصر",26.3388704,31.8893907
"Viña del Mar, Chile",-33.0244535,-71.5517636
seoul,37.5666791,126.9782914
"Des Moines, IA",41.5910641,-93.6037149
"Depalpur, Pakistan",30.6691771,73.6513733
"Palmetto, FL",27.5214269,-82.5723193
"Birmingham, 伯明翰英国",52.4632175,-1.860019160637519
"Bilbao, Spain",43.2630051,-2.9349915
"Астана, Казахстан",51.1282205,71.4306682
"Pompton Lakes, NJ 07442, United States",41.0053753,-74.2907042
"Erfurt, Deutschland",50.9777974,11.0287364
"Livingston, UK",55.8831932,-3.5149461
"Jakarta, Indonesia",-6.1753942,106.827183
Finland,63.2467777,25.9209164
"Dhaka Division, Bangladesh",24.271176,90.2161818
"Saskatoon, SK, Canada",52.131802,-106.660767
"Иркутск, Иркутская область, Россия",52.289597,104.280586
American International University-Bangladesh (AIUB),23.794717300000002,90.40244687512448
"Busan, 대한민국",35.1799528,129.0752365
"São Paulo, Brazil",-23.5506507,-46.6333824
The World,37.1215869,-121.64733399199766
"Savoie, France",45.494895150000005,6.384660381375652
"Nashua, NH",42.7653662,-71.467566
"Baghdad, Iraq",33.3024309,44.3787992
"Rabat, Morocco",34.022405,-6.834543
"Živinice Grad, Bosnia and Herzegovina",44.451574,18.6501306
St. Louis,38.6268039,-90.1994097
"Dhaka University, Dhaka, Bangladesh",23.7293285,90.3954998
"Getafe, España",40.3081807,-3.7302679
"Wadduwa, Sri Lanka",6.6639728,79.9305102
"Manaus, Brazil",-3.1316333,-59.9825041
Norman,35.2225717,-97.4394816
"Makati City, Metro Manila, Philippines",14.5568853,121.023532
Liban,33.8750629,35.843409
"Otisville, mi",43.166137,-83.524398
"Düzce, Düzce Merkez/Düzce, Turkey",40.8458611,31.164851
"Richardson, TX, USA",32.9481789,-96.7297206
"Eyendorf, Germany",53.2037503,10.1551953
"Jaffna, Sri Lanka",9.665093,80.0093029
"Glasgow City Centre, Glasgow, UK",55.8609825,-4.2488787
"Indonesiana, Tidore Kepulauan City, North Maluku, Indonesia",0.6789547,127.4538383
"West Covina, CA, United States",34.0686208,-117.9389526
"Davao City, Philippines",7.0644576,125.6083647
Austrália,-24.7761086,134.755
"Kolín, Česko",50.0288894,15.2011571
"Argentina, Ramos Mejía, Buenos Aires, Argentina",-34.6513342,-58.5784081
Also a secret,51.09443280000001,17.019641062334244
"Boston, MA",42.3602534,-71.0582912
"Marikina, NCR, Philippines",14.6331084,121.0993541
"Hyderabad, Pakistan",25.3801017,68.3750376
Türkiye,38.9597594,34.9249653
"São Paulo, State of São Paulo, Brazil",-23.5506507,-46.6333824
"Naperville, IL, United States",41.7728699,-88.1479278
Jeddah Saudi Arabia,21.5810088,39.1653612
"Marília - SP, Brasil",-22.217108,-49.95006
"FL, USA",27.7567667,-81.4639835
"Serbia, Novi Sad",45.2551338,19.8451756
"Iași, Romania",47.1615341,27.5836142
"Hollywood, FL",26.0112014,-80.1494901
"Belo Horizonte, State of Minas Gerais, Brazil",-19.9227318,-43.9450948
"Clovis, CA",36.8252277,-119.7029194
"O'Fallon, MO, United States",38.7910374,-90.7039107
"Calabarzon, Philippines",14.1638114,121.35366010781269
"Narromine NSW, Australia",-32.2319958,148.2391867
"Middle Village, NY",40.718215650000005,-73.87867154730415
"Pekanbaru, Pekanbaru City, Riau, Indonesia",0.6111032000000001,101.54284256313278
"Adama, Oromia, Ethiopia",8.5410261,39.2705461
"Ukraine, Kiev",50.4500336,30.5241361
"NY, NY",40.741235950000004,-73.35669116536101
"Abilene, TX 79603",32.44645,-99.7475905
"Fels am Wagram, Österreich",48.4383468,15.8203233
"Newburgh, Indiana, USA",37.9456824,-87.4046571
"France, Castelnau-de-Lévis, França",43.9424481,2.0746088
MI,39.7837304,-100.4458825
"Dieppe, France",49.9246182,1.0791444
"Boulder, Co",40.0149856,-105.2705456
"Wiesloch, Germany",49.2942599,8.698707
"HongKong, 香港",22.2793278,114.1628131
"new delhi ,india",28.6138954,77.2090057
"Harrogate, United Kingdom",53.9921491,-1.5391039
Taguig city,14.5266254,121.074403
The Wirral,53.3409714,-3.0500916
"Нижний Новгород, Нижегородская область, Россия",56.328571,44.003506
"Exeter, United Kingdom",50.725562,-3.5269108
New Caledonia,-20.454288599999998,164.55660583077983
"South Carolina, USA",33.6874388,-80.4363743
中国北京市北京,39.906217,116.3912757
"Sinaloa, México",25.0000001,-107.5000001
"Lemoyne, PA, United States",40.2412143,-76.894272
"Alabama, США",33.2588817,-86.8295337
"Vadodara, India",22.2973142,73.1942567
"Mooresville, NC, USA",35.5848596,-80.8100724
"Valencia, Spain",39.4697065,-0.3763353
"Heerenveen, Netherlands",52.9568246,5.9270052
